% program   : rnx2rtkp ver.EX 2.5.0
% inp file  : ../rinex/07590920.05o
% inp file  : ../rinex/30400920.05n
% inp file  : ../rinex/30400920.05o
% obs start : 2005/04/02 00:00:00.0 GPST (week1316 518400.0s)
% obs end   : 2005/04/02 00:59:30.0 GPST (week1316 521970.0s)
% ref pos   :  -3978241.9580   3382840.2340   3649900.8530
%
% (x/y/z-ecef=WGS84,Q=1:fix,2:float,3:sbas,4:dgps,5:single,6:ppp,ns=# of satellites)
%  GPST                      x-ecef(m)      y-ecef(m)      z-ecef(m)   Q  ns   sdx(m)   sdy(m)   sdz(m)  sdxy(m)  sdyz(m)  sdzx(m) age(s)  ratio
2005/04/02 00:59:30.000  -3976219.9680   3382372.4404   3652512.3851   2   5  10.0974  10.5607  21.7881 -10.2453  15.0249 -14.6797   0.01    0.0
2005/04/02 00:59:00.000  -3976219.9074   3382372.4691   3652512.5102   2   5   2.0976   2.2171   2.0889  -1.9475   1.9685  -1.8652   0.01    0.0
2005/04/02 00:58:30.000  -3976219.5186   3382371.9423   3652511.5313   2   5 120.9349  27.6225  33.8274  76.0247  52.5080  67.1050   0.01    0.0
2005/04/02 00:58:00.000  -3976219.6315   3382372.1204   3652511.4045   2   5   1.4097   1.4928   1.0388  -1.2861   1.1914  -1.1114   0.01    0.0
2005/04/02 00:57:30.000  -3976219.4689   3382371.8777   3652511.3951   2   5   1.2354   1.3044   0.8708  -1.1286   1.0306  -0.9634   0.01    0.0
2005/04/02 00:57:00.000  -3976219.2140   3382371.6372   3652511.2028   1   5   0.0000   0.0000  32.3305 -29.8323  12.3574 -61.5621   0.01   81.2
2005/04/02 00:56:30.004  -3976053.0264   3382371.8468   3652511.6215   1   6   0.0000   0.1153   0.0560 204.2202  -0.0943 165.3403   0.01    6.9
2005/04/02 00:56:00.004  -3976219.1686   3382371.7605   3652511.5541   2   6   1.5860   1.1483   2.0858  -0.6418  -1.3344  -0.2003   0.01    0.0
2005/04/02 00:55:30.000  -3976219.2636   3382371.7918   3652511.4783   2   6   1.6779   0.5398   1.5308   0.0646   0.5688   1.1441   0.01    0.0
2005/04/02 00:55:00.000  -3976219.1622   3382371.7280   3652511.3169   2   6   1.0062   0.5281   0.4790  -0.4847   0.2827  -0.4508   0.01    0.0
2005/04/02 00:54:30.000  -3976218.9265   3382371.6478   3652511.0114   2   6   0.8425   0.5366   0.4019  -0.4167   0.1713  -0.4166   0.01    0.0
2005/04/02 00:54:00.000  -3976219.1880   3382371.6051   3652511.1420   1   6   0.0000   0.0903   0.0000  -0.3636  -0.3858  -0.3266   0.01   44.2
2005/04/02 00:53:30.000  -3976219.1829   3382371.6010   3652511.1334   1   6   0.0372   0.1058   0.0000   0.1124   0.0590  -0.1127   0.01   58.6
2005/04/02 00:53:00.000  -3976218.8644   3382371.4994   3652510.9979   2   6   0.9329   0.1778   0.2255   0.5507   0.6948   0.4560   0.01    0.0
2005/04/02 00:52:30.000  -3976219.1804   3382371.5992   3652511.1197   1   6   0.0000   0.0000   0.0000  -1.2500   0.5410  -1.1856   0.01   56.0
2005/04/02 00:52:00.004  -3976219.1864   3382371.6013   3652511.1296   1   6   0.2088   0.1166   0.1386   0.1442   0.1004   0.1438   0.01   43.9
2005/04/02 00:51:30.000  -3976218.8888   3382371.3818   3652510.9868   2   6   0.3533   0.6286   0.6608   0.4681  -0.2497   0.6671   0.01    0.0
2005/04/02 00:51:00.000  -3976218.8815   3382371.3760   3652511.0212   2   6   1.5970   0.8995   0.7688   1.3278   1.0967   0.5132   0.01    0.0
2005/04/02 00:50:30.000  -3976219.1791   3382371.6026   3652511.1327   1   6   0.4549   0.1384   0.1802  -0.0803  -0.1567   0.3150   0.01   59.0
2005/04/02 00:50:00.000  -3976219.1803   3382371.6028   3652511.1369   1   6   0.1158   0.0000   0.0409   0.0877   0.1004   0.1359   0.01   81.4
2005/04/02 00:49:30.000  -3976219.1799   3382371.6043   3652511.1352   1   6   0.3567   0.5079   0.0000   0.5708   0.3377  -0.7847   0.01   93.0
2005/04/02 00:49:00.000  -3976219.1846   3382371.6034   3652511.1443   1   6   0.1161   0.4580   0.5779  -0.5465  -0.7178   0.2375   0.01  105.0
2005/04/02 00:48:30.000  -3976219.1768   3382371.6028   3652511.1298   1   6   0.5517   0.1841   0.3792  -0.2972  -0.3544   0.1748   0.01   97.5
2005/04/02 00:48:00.000  -3976219.1092   3382371.5690   3652511.1531   2   6   0.9316   0.5345   0.0000   0.9498   0.8418  -0.5239   0.01    0.0
2005/04/02 00:47:30.000  -3976219.1807   3382371.6050   3652511.1398   1   6   0.0000   0.6369   0.0000  -0.6617  -0.9214  -1.4037   0.01   98.1
2005/04/02 00:47:00.004  -3976219.1736   3382371.5984   3652511.1340   1   6   0.1973   0.0000   0.0000  -0.0800   0.1544   0.1319   0.01  114.9
2005/04/02 00:46:30.000  -3976219.1289   3382371.5977   3652511.1524   2   6   0.6025   0.3413   0.6398   0.6449   0.5776   0.5672   0.01    0.0
2005/04/02 00:46:00.000  -3976219.1796   3382371.5992   3652511.1377   1   6   0.0000   0.0000   0.0000  -1.0633   0.5279  -1.7866   0.01  127.6
2005/04/02 00:45:30.004  -3976219.1794   3382371.5986   3652511.1340   1   6   0.0000   0.0940   0.0784   0.1349   0.1078   0.0616   0.01  126.3
2005/04/02 00:45:00.000  -3976219.1881   3382371.6023   3652511.1399   1   6   0.5757   0.2839   0.3836   0.4209   0.3380   0.6628   0.01  130.8
2005/04/02 00:44:30.000  -3976219.1901   3382371.6097   3652511.1436   1   6   0.0000   0.6515   0.5273   0.4660  -0.3923   0.3664   0.01  136.4
2005/04/02 00:44:00.003  -3976219.1873   3382371.6036   3652511.1332   1   6   0.2712   0.0000   0.0000  -0.5329  -0.3514   0.4431   0.01  137.7
2005/04/02 00:43:30.000  -3976219.1855   3382371.6073   3652511.1276   1   6   0.8064   0.0000   0.1313   0.0381   0.2829  -0.3229   0.01  136.8
2005/04/02 00:43:00.000  -3976219.2002   3382371.6513   3652511.1632   2   6   1.1769   0.3423   0.0000   0.5183   0.4169   0.3636   0.01    0.0
2005/04/02 00:42:30.000  -3976219.1896   3382371.6047   3652511.1334   1   6   0.8475   0.0000   1.1065  -1.2517  -0.4416   1.3432   0.01  156.3
2005/04/02 00:42:00.000  -3976219.1914   3382371.6087   3652511.1376   1   6   0.0684   0.0000   0.0662   0.0481   0.0549   0.0757   0.01  160.8
2005/04/02 00:41:30.000  -3976219.1839   3382371.6006   3652511.1364   1   6   0.0000   0.0000   0.0000  -0.9134  -0.9239  -0.9899   0.01  156.9
2005/04/02 00:41:00.003  -3976219.1845   3382371.5992   3652511.1333   1   6   0.0000   0.0000   0.0000  -0.7495   0.5207  -0.3324   0.01  158.4
2005/04/02 00:40:30.003  -3976219.1737   3382371.6419   3652511.1652   2   6   0.9239   0.4556   0.6464   0.5976   0.4296   0.7702   0.01    0.0
2005/04/02 00:40:00.000  -3976219.1432   3382371.6466   3652511.1550   2   6   1.5838   1.4661   0.0000   1.7332   1.1209  -1.5627   0.01    0.0
2005/04/02 00:39:30.000  -3976219.1865   3382371.6047   3652511.1343   1   6   0.0000   0.0000   0.0000   0.0536   0.1174  -0.2727   0.01  191.1
2005/04/02 00:39:00.000  -3976219.1865   3382371.6050   3652511.1361   1   6   0.1388   0.0000   0.1382   0.0955   0.1236   0.1065   0.01  194.4
2005/04/02 00:38:30.000  -3976219.1893   3382371.6014   3652511.1376   1   6   0.0000   0.0000   0.4277  -0.1101   0.1646   0.3486   0.01  199.5
2005/04/02 00:38:00.003  -3976219.1871   3382371.6014   3652511.1373   1   6   0.0000   0.4308   0.0000  -0.3064  -0.5214  -0.8942   0.01  205.5
2005/04/02 00:37:30.003  -3976219.1857   3382371.6022   3652511.1371   1   6   0.0000   0.0000   0.8003  -0.8256  -0.5857   0.8688   0.01  212.4
2005/04/02 00:37:00.003  -3976219.1281   3382371.6485   3652511.1496   2   6   1.3449   0.0000   0.5795   0.2883   0.5421   0.7197   0.01    0.0
2005/04/02 00:36:30.000  -3976219.1228   3382371.6368   3652511.1423   2   6   1.2316   0.8645   0.6955   1.3021   1.0656  -1.0432   0.01    0.0
2005/04/02 00:36:00.000  -3976219.1922   3382371.6015   3652511.1491   1   6   0.1017   0.3267   0.2516  -0.0625  -0.3203   0.1520   0.00  228.6
2005/04/02 00:35:30.000  -3976219.1796   3382371.5963   3652511.1345   1   6   0.1841   0.0000   0.0000  -0.0724   0.1352   0.1471   0.00  229.6
2005/04/02 00:35:00.000  -3976219.1899   3382371.6036   3652511.1476   1   6   0.0000   0.6912   0.0000   0.2108  -0.6250  -0.7961   0.00  236.4
2005/04/02 00:34:30.003  -3976219.1851   3382371.6010   3652511.1446   1   6   0.0000   0.0873   0.0000   0.2142   0.2036  -1.0880   0.00  254.0
2005/04/02 00:34:00.003  -3976219.1910   3382371.6089   3652511.1508   1   6   0.0000   0.7280   0.0000   0.5692  -0.3707  -0.6780   0.00  263.9
2005/04/02 00:33:30.000  -3976219.1919   3382371.6024   3652511.1470   1   6   0.0000   0.0000   0.0000  -0.2870  -0.1429  -0.3960   0.00  271.6
2005/04/02 00:33:00.003  -3976219.1922   3382371.6065   3652511.1404   1   6   0.0000   0.0000   0.3571   0.4304   0.4463   0.5288   0.00  277.4
2005/04/02 00:32:30.002  -3976219.0775   3382371.6365   3652511.1316   2   6   1.5116   0.0000   0.6121   0.2961   0.5675   0.9660   0.00    0.0
2005/04/02 00:32:00.000  -3976219.1799   3382371.5900   3652511.1355   1   6   0.0000   0.5612   0.0000   1.5457   1.5137  -0.9813   0.00  263.0
2005/04/02 00:31:30.002  -3976219.1865   3382371.6025   3652511.1369   1   6   0.0875   0.0000   0.0339   0.0973   0.1027  -0.0943   0.00  261.6
2005/04/02 00:31:00.000  -3976219.1937   3382371.6048   3652511.1408   1   6   0.0000   0.3404   0.0000   0.6369   0.5756  -0.2127   0.00  256.2
2005/04/02 00:30:30.002  -3976219.1111   3382371.6380   3652511.1342   2   6   0.3963   0.6410   0.5732   0.0386  -0.6187   0.5754   0.00    0.0
2005/04/02 00:30:00.000  -3976219.1188   3382371.6418   3652511.1428   2   6   0.6709   0.6428   0.9417  -0.9184  -1.1368   0.3504   0.00    0.0
2005/04/02 00:29:30.000  -3976219.1904   3382371.6066   3652511.1409   1   6   0.0763   0.0000   0.0000   0.1514   0.2675   0.1865   0.00  225.1
2005/04/02 00:29:00.000  -3976219.1863   3382371.6031   3652511.1390   1   6   0.0000   0.0000   0.0000  -0.0744   0.1215  -0.1205   0.00  224.5
2005/04/02 00:28:30.002  -3976219.1890   3382371.6071   3652511.1413   1   6   0.0000   0.4615   0.6800   0.2850  -0.3337   0.2110   0.00  222.7
2005/04/02 00:28:00.002  -3976219.1896   3382371.6053   3652511.1427   1   6   0.6457   0.0000   0.6296   0.2740   0.7135  -0.3487   0.00  214.5
2005/04/02 00:27:30.000  -3976219.1969   3382371.6092   3652511.1462   1   6   0.0000   0.7438   0.5609  -0.5346  -0.9062   0.5446   0.00  208.8
2005/04/02 00:27:00.002  -3976219.1924   3382371.6045   3652511.1434   1   6   0.0000   0.0000   0.2586  -0.4928  -0.2817  -0.3063   0.00  213.6
2005/04/02 00:26:30.002  -3976219.1930   3382371.6007   3652511.1409   1   6   0.0000   0.0000   0.0000  -0.6664  -0.5985  -0.6200   0.00  216.1
2005/04/02 00:26:00.002  -3976219.1890   3382371.6014   3652511.1406   1   6   0.0000   0.0000   0.7753  -0.6170  -0.3604   0.6161   0.00  221.0
2005/04/02 00:25:30.002  -3976219.1914   3382371.6065   3652511.1431   1   6   0.5463   0.6212   0.0000   0.5525  -0.1705  -0.4970   0.00  229.7
2005/04/02 00:25:00.000  -3976219.1906   3382371.6066   3652511.1436   1   6   0.0929   0.0000   0.2405  -0.5646   0.5602   0.3953   0.00  240.1
2005/04/02 00:24:30.000  -3976219.1894   3382371.6016   3652511.1438   1   6   0.0000   0.0000   0.0000  -0.4989  -0.3254  -0.6617   0.00  247.1
2005/04/02 00:24:00.002  -3976219.1818   3382371.5942   3652511.1376   1   6   0.0000   0.6092   0.2666  -0.3093  -0.6665   0.1309   0.00  247.7
2005/04/02 00:23:30.002  -3976219.1895   3382371.6080   3652511.1430   1   6   0.0000   0.0000   0.0000  -0.7942   0.4222  -0.7226   0.00  250.2
2005/04/02 00:23:00.002  -3976219.1877   3382371.6054   3652511.1417   1   6   0.0000   0.0000   0.9470  -0.6318  -0.5596   0.5530   0.00  250.6
2005/04/02 00:22:30.002  -3976219.1860   3382371.6065   3652511.1398   1   6   0.0000   0.6278   0.4527   0.3358  -0.4898  -0.3458   0.00  254.6
2005/04/02 00:22:00.002  -3976219.1281   3382371.6395   3652511.1417   2   6   0.5059   0.7330   0.2348   0.4353  -0.5409  -0.2768   0.00    0.0
2005/04/02 00:21:30.000  -3976219.1839   3382371.6025   3652511.1428   1   6   0.0000   1.0321   0.0000  -0.4039  -1.0866  -0.5169   0.00  261.6
2005/04/02 00:21:00.001  -3976219.1865   3382371.5996   3652511.1416   1   6   0.0000   0.1090   0.1402  -0.1199  -0.1625   0.0515   0.00  259.2
2005/04/02 00:20:30.001  -3976219.1861   3382371.6027   3652511.1386   1   6   0.4508   0.0000   0.2918  -0.4736   0.4474  -0.2959   0.00  253.6
2005/04/02 00:20:00.000  -3976219.1920   3382371.6071   3652511.1422   1   6   0.0000   0.0000   0.0000  -0.7485  -0.2582  -0.5808   0.00  249.1
2005/04/02 00:19:30.001  -3976219.1733   3382371.6148   3652511.1400   2   6   0.5120   0.9222   0.0000   0.5674  -0.6649  -0.4210   0.00    0.0
2005/04/02 00:19:00.000  -3976219.1947   3382371.6055   3652511.1441   1   6   0.0000   0.0000   0.0000  -0.4151   0.7353  -1.1478   0.00  243.0
2005/04/02 00:18:30.001  -3976219.1848   3382371.5987   3652511.1380   1   6   0.0000   0.0000   0.1705  -0.0516   0.1408   0.1562   0.00  239.4
2005/04/02 00:18:00.000  -3976219.1909   3382371.6034   3652511.1444   1   6   0.0000   0.0000   0.0000  -0.1824   0.5549  -0.7159   0.00  237.3
2005/04/02 00:17:30.001  -3976219.1913   3382371.6063   3652511.1415   1   7   0.3114   0.0000   0.0000  -0.3951   0.3910   0.4497   0.00    7.4
2005/04/02 00:17:00.000  -3976219.1895   3382371.6051   3652511.1446   1   7   0.0000   0.0000   0.0000  -0.8797   0.7611   0.4914   0.00   14.2
2005/04/02 00:16:30.001  -3976219.1889   3382371.6041   3652511.1428   1   7   0.2938   0.0000   0.1129  -0.8637   0.3058  -0.0718   0.00   19.7
2005/04/02 00:16:00.000  -3976219.2238   3382371.5961   3652511.1500   2   7   0.2671   0.0000   0.8964  -0.6655  -0.6376   0.3153   0.00    0.0
2005/04/02 00:15:30.000  -3976219.2257   3382371.6034   3652511.1538   2   7   1.4261   0.0000   1.2973  -0.9419   0.9618   0.6717   0.00    0.0
2005/04/02 00:15:00.000  -3976219.1903   3382371.6046   3652511.1434   1   7   0.2645   0.2104   0.0000   0.1865  -0.0628   0.0935   0.00   33.1
2005/04/02 00:14:30.000  -3976219.1854   3382371.6023   3652511.1454   1   7   0.0000   0.0000   0.0000   0.1442   0.1751  -0.1467   0.00   36.8
2005/04/02 00:14:00.001  -3976219.1910   3382371.6112   3652511.1495   1   7   0.0000   0.0000   0.0000  -0.6540   0.3239   0.1670   0.00   41.9
2005/04/02 00:13:30.001  -3976219.1831   3382371.6041   3652511.1447   1   7   0.4085   0.3016   0.1790   0.6016   0.5585   0.5709   0.00   47.2
2005/04/02 00:13:00.000  -3976219.1867   3382371.6025   3652511.1462   1   7   0.0000   0.0000   0.0000  -0.3725   0.7114  -0.3545   0.00   53.4
2005/04/02 00:12:30.001  -3976219.1827   3382371.5963   3652511.1407   1   7   0.0000   0.3676   0.0000  -0.3491  -0.5062   0.2965   0.00   58.1
2005/04/02 00:12:00.001  -3976219.2277   3382371.6054   3652511.1569   2   7   0.4621   0.3224   0.8874   0.3552   0.1978   0.6615   0.00    0.0
2005/04/02 00:11:30.000  -3976219.1805   3382371.5945   3652511.1392   1   7   1.1067   0.0000   0.6626  -1.2882  -0.5062   1.3357   0.00   68.9
2005/04/02 00:11:00.000  -3976219.1828   3382371.5997   3652511.1389   1   7   0.0417   0.0818   0.0000   0.0652  -0.0407   0.1198   0.00   78.3
2005/04/02 00:10:30.000  -3976219.1826   3382371.6027   3652511.1382   1   7   0.0000   0.0000   0.7543   0.0561   0.3810   0.4365   0.00   84.8
2005/04/02 00:10:00.001  -3976219.1852   3382371.6009   3652511.1398   1   7   0.0000   0.0000   0.0000  -0.6967   0.3160  -0.1736   0.00   93.0
2005/04/02 00:09:30.001  -3976219.1742   3382371.5868   3652511.1285   1   7   0.0000   0.0000   0.0000  -0.8070   0.4101  -0.7031   0.00   96.0
2005/04/02 00:09:00.000  -3976219.1877   3382371.6068   3652511.1391   1   7   0.0000   0.0000   0.0000  -0.2474   0.6356  -0.4557   0.00  102.0
2005/04/02 00:08:30.000  -3976219.1837   3382371.6082   3652511.1405   1   7   0.0000   0.4608   0.1449   0.3167  -0.2984  -0.4003   0.00  113.5
2005/04/02 00:08:00.000  -3976219.1852   3382371.6054   3652511.1430   1   7   0.0000   0.0000   0.2487  -0.3736   0.6388  -0.5691   0.00  123.6
2005/04/02 00:07:30.000  -3976219.1871   3382371.6106   3652511.1453   1   7   0.7058   0.2013   0.0957   0.4616   0.4362   0.3526   0.00  129.2
2005/04/02 00:07:00.000  -3976219.1863   3382371.6096   3652511.1441   1   7   0.0000   0.5908   0.0000   0.5879   0.2211  -0.6649   0.00  135.0
2005/04/02 00:06:30.000  -3976219.1829   3382371.6028   3652511.1438   1   7   0.6221   0.0000   0.0000   0.2279   0.6248   0.1785   0.00  139.4
2005/04/02 00:06:00.000  -3976219.1995   3382371.6070   3652511.1525   2   7   0.0000   0.3094   0.8728  -0.4552  -0.5579   0.1355   0.00    0.0
2005/04/02 00:05:30.000  -3976219.2111   3382371.6118   3652511.1585   2   7   0.5060   0.0000   2.2298  -0.8845   0.2217   1.7550   0.00    0.0
2005/04/02 00:05:00.000  -3976219.1855   3382371.6025   3652511.1452   1   7   0.1848   0.0000   0.0000  -0.1323   0.3074  -0.2003   0.00  143.3
2005/04/02 00:04:30.000  -3976219.1862   3382371.5975   3652511.1390   1   7   0.1699   0.2381   0.0000   0.1349  -0.1807   0.0745   0.00  149.6
2005/04/02 00:04:00.000  -3976219.1997   3382371.6217   3652511.1528   2   7   0.0000   0.7202   0.8871  -0.2794  -0.7526   0.5306   0.00    0.0
2005/04/02 00:03:30.000  -3976219.1925   3382371.6269   3652511.1491   2   7   0.2234   1.5877   1.0142   1.3014  -0.6920   1.3397   0.00    0.0
2005/04/02 00:03:00.000  -3976219.1931   3382371.6093   3652511.1441   1   7   0.2395   0.3365   0.2038   0.1225  -0.2976   0.2380   0.00  184.0
2005/04/02 00:02:30.000  -3976219.1850   3382371.5999   3652511.1386   1   7   0.0000   0.0000   0.1382  -0.0794   0.0741  -0.0417   0.00  189.6
2005/04/02 00:02:00.000  -3976219.1876   3382371.6004   3652511.1413   1   7   0.3898   0.0000   0.0000  -0.2749   0.4171  -0.4329   0.00  193.9
2005/04/02 00:01:30.000  -3976219.1880   3382371.6068   3652511.1384   1   7   0.0000   0.6180   0.3625  -0.3404  -0.6950  -0.5224   0.00  201.4
2005/04/02 00:01:00.000  -3976219.1823   3382371.5997   3652511.1334   1   7   0.2184   0.0000   0.0000  -0.3590  -0.2205   0.6144   0.00  205.6
2005/04/02 00:00:30.000  -3976219.1810   3382371.5980   3652511.1336   1   7   0.0000   0.0000   0.0000  -0.4908   0.0165  -0.7877   0.00  213.7
2005/04/02 00:00:00.000  -3976219.1828   3382371.6031   3652511.1379   1   7   0.6455   0.0000   0.0000   0.0523   0.6071  -0.2667   0.00  218.8
