% program   : rnx2rtkp ver.EX 2.5.0
% inp file  : ../rinex/07590920.05o
% inp file  : ../rinex/30400920.05n
% inp file  : ../rinex/30400920.05o
% obs start : 2005/04/02 00:00:00.0 GPST (week1316 518400.0s)
% obs end   : 2005/04/02 00:59:30.0 GPST (week1316 521970.0s)
% ref pos   :  -3978241.9580   3382840.2340   3649900.8530
%
% (x/y/z-ecef=WGS84,Q=1:fix,2:float,3:sbas,4:dgps,5:single,6:ppp,ns=# of satellites)
%  GPST                      x-ecef(m)      y-ecef(m)      z-ecef(m)   Q  ns   sdx(m)   sdy(m)   sdz(m)  sdxy(m)  sdyz(m)  sdzx(m) age(s)  ratio
2005/04/02 00:00:00.000  -3976219.1828   3382371.6031   3652511.1379   1   7   0.6455   0.0000   0.0000   0.0523   0.6071  -0.2667   0.00  218.8
2005/04/02 00:00:30.000  -3976219.1810   3382371.5980   3652511.1336   1   7   0.0000   0.0000   0.0000  -0.4908   0.0165  -0.7877   0.00  213.7
2005/04/02 00:01:00.000  -3976219.1823   3382371.5997   3652511.1334   2   7   0.2183   0.0000   0.0000  -0.3590  -0.2205   0.6144   0.00   24.7
2005/04/02 00:01:30.000  -3976219.1880   3382371.6068   3652511.1384   1   7   0.0000   0.6180   0.3625  -0.3404  -0.6950  -0.5224   0.00  201.4
2005/04/02 00:02:00.000  -3976219.1876   3382371.6004   3652511.1413   1   7   0.3898   0.0000   0.0000  -0.2749   0.4171  -0.4329   0.00  193.9
2005/04/02 00:02:30.000  -3976219.1850   3382371.5999   3652511.1386   1   7   0.0000   0.0000   0.1382  -0.0794   0.0741  -0.0417   0.00  189.6
2005/04/02 00:03:00.000  -3976219.1931   3382371.6093   3652511.1441   1   7   0.2395   0.3365   0.2038   0.1225  -0.2976   0.2380   0.00  184.0
2005/04/02 00:03:30.000  -3976219.1925   3382371.6269   3652511.1491   2   7   0.2234   1.5877   1.0142   1.3014  -0.6920   1.3397   0.00    0.0
2005/04/02 00:04:00.000  -3976219.1940   3382371.6201   3652511.1683   2   7   0.0000   0.5694   0.7004   0.1211  -0.5842   0.4530   0.00    0.0
2005/04/02 00:04:30.000  -3976219.1862   3382371.5975   3652511.1390   1   7   0.1699   0.2381   0.0000   0.1349  -0.1807   0.0745   0.00  149.6
2005/04/02 00:05:00.000  -3976219.1855   3382371.6025   3652511.1452   1   7   0.1848   0.0000   0.0000  -0.1323   0.3074  -0.2003   0.00  143.3
2005/04/02 00:05:30.000  -3976229.4609   3382378.4101   3652517.3653   2   7   0.0000   0.0000   0.0000   2.3897  -1.8646   2.3092   0.00    0.0
2005/04/02 00:06:00.000  -3976218.9419   3382371.5401   3652511.5236   2   7   0.0000   0.1467   0.0000   0.2801   0.3169  -1.2514   0.00    1.3
2005/04/02 00:06:30.000  -3976219.1829   3382371.6028   3652511.1438   1   7   0.6221   0.0000   0.0000   0.2279   0.6248   0.1785   0.00  139.4
2005/04/02 00:07:00.000  -3976219.1863   3382371.6096   3652511.1441   1   7   0.0000   0.5908   0.0000   0.5879   0.2211  -0.6649   0.00  135.0
2005/04/02 00:07:30.000  -3976219.1871   3382371.6106   3652511.1453   1   7   0.7058   0.2013   0.0957   0.4616   0.4362   0.3526   0.00  129.2
2005/04/02 00:08:00.000  -3976219.1852   3382371.6054   3652511.1430   1   7   0.0000   0.0000   0.2487  -0.3736   0.6388  -0.5691   0.00  123.6
2005/04/02 00:08:30.000  -3976219.1837   3382371.6082   3652511.1405   1   7   0.0000   0.4608   0.1449   0.3167  -0.2984  -0.4003   0.00  113.5
2005/04/02 00:09:00.000  -3976219.1877   3382371.6068   3652511.1391   1   7   0.0000   0.0000   0.0000  -0.2474   0.6356  -0.4557   0.00  102.0
2005/04/02 00:09:30.001  -3976219.1742   3382371.5868   3652511.1285   1   7   0.0000   0.0000   0.0000  -0.8070   0.4101  -0.7031   0.00   96.0
2005/04/02 00:10:00.001  -3976219.1852   3382371.6009   3652511.1398   1   7   0.0000   0.0000   0.0000  -0.6967   0.3160  -0.1736   0.00   93.0
2005/04/02 00:10:30.000  -3976219.1826   3382371.6027   3652511.1382   1   7   0.0000   0.0000   0.7543   0.0561   0.3810   0.4365   0.00   84.8
2005/04/02 00:11:00.000  -3976219.1828   3382371.5997   3652511.1389   1   7   0.0417   0.0818   0.0000   0.0652  -0.0407   0.1198   0.00   78.3
2005/04/02 00:11:30.000  -3976219.1805   3382371.5945   3652511.1392   1   7   1.1067   0.0000   0.6626  -1.2882  -0.5062   1.3357   0.00   68.9
2005/04/02 00:12:00.001  -3976218.8607   3382371.6232   3652510.7168   2   7   0.2538   0.0925   0.0938   0.1579   0.0592   0.0706   0.00    1.0
2005/04/02 00:12:30.001  -3976219.1827   3382371.5963   3652511.1407   1   7   0.0000   0.3676   0.0000  -0.3491  -0.5062   0.2965   0.00   58.1
2005/04/02 00:13:00.000  -3976219.1867   3382371.6025   3652511.1462   1   7   0.0000   0.0000   0.0000  -0.3725   0.7114  -0.3545   0.00   53.4
2005/04/02 00:13:30.001  -3976219.1831   3382371.6041   3652511.1447   1   7   0.4085   0.3016   0.1790   0.6016   0.5585   0.5709   0.00   47.2
2005/04/02 00:14:00.001  -3976219.1910   3382371.6112   3652511.1495   1   7   0.0000   0.0000   0.0000  -0.6540   0.3239   0.1670   0.00   41.9
2005/04/02 00:14:30.000  -3976219.1854   3382371.6023   3652511.1454   1   7   0.0000   0.0000   0.0000   0.1442   0.1751  -0.1467   0.00   36.8
2005/04/02 00:15:00.000  -3976219.1903   3382371.6046   3652511.1434   1   7   0.2645   0.2104   0.0000   0.1865  -0.0628   0.0935   0.00   33.1
2005/04/02 00:15:30.000  -3976218.7353   3382371.6257   3652510.7390   2   7   0.1878   0.0276   0.0281   0.0975   0.0256   0.0697   0.00    1.0
2005/04/02 00:16:00.000  -3976218.6723   3382371.6420   3652510.7460   2   7   0.1897   0.0731   0.0956   0.1207   0.0462   0.0932   0.00    1.0
2005/04/02 00:16:30.001  -3976219.1889   3382371.6041   3652511.1428   1   7   0.2938   0.0000   0.1129  -0.8637   0.3058  -0.0718   0.00   19.7
2005/04/02 00:17:00.000  -3976219.1895   3382371.6051   3652511.1446   1   7   0.0000   0.0000   0.0000  -0.8797   0.7611   0.4914   0.00   14.2
2005/04/02 00:17:30.001  -3976219.1913   3382371.6063   3652511.1415   1   7   0.3114   0.0000   0.0000  -0.3951   0.3910   0.4497   0.00    7.4
2005/04/02 00:18:00.000  -3976219.1909   3382371.6034   3652511.1444   1   6   0.0000   0.0000   0.0000  -0.1824   0.5549  -0.7159   0.00  237.3
2005/04/02 00:18:30.001  -3976219.1848   3382371.5987   3652511.1380   1   6   0.0000   0.0000   0.1705  -0.0516   0.1408   0.1562   0.00  239.4
2005/04/02 00:19:00.000  -3976219.1947   3382371.6055   3652511.1441   1   6   0.0000   0.0000   0.0000  -0.4151   0.7353  -1.1478   0.00  243.0
2005/04/02 00:19:30.000  -3976218.7784   3382371.5667   3652510.7298   2   6   0.1410   0.0539   0.0509   0.0961   0.0442   0.0232   0.00    1.2
2005/04/02 00:20:00.000  -3976219.1920   3382371.6071   3652511.1422   1   6   0.0000   0.0000   0.0000  -0.7485  -0.2582  -0.5808   0.00  249.1
2005/04/02 00:20:30.001  -3976219.1861   3382371.6027   3652511.1386   1   6   0.4508   0.0000   0.2918  -0.4736   0.4474  -0.2959   0.00  253.6
2005/04/02 00:21:00.001  -3976219.1865   3382371.5996   3652511.1416   1   6   0.0000   0.1090   0.1402  -0.1199  -0.1625   0.0515   0.00  259.2
2005/04/02 00:21:30.000  -3976219.1839   3382371.6025   3652511.1428   1   6   0.0000   1.0321   0.0000  -0.4039  -1.0866  -0.5169   0.00  261.6
2005/04/02 00:22:00.001  -3976218.9742   3382371.4657   3652510.7551   2   6   0.1493   0.0853   0.0000   0.0968  -0.0348   0.0238   0.00    1.0
2005/04/02 00:22:30.002  -3976219.1860   3382371.6065   3652511.1398   1   6   0.0000   0.6278   0.4527   0.3358  -0.4898  -0.3458   0.00  254.6
2005/04/02 00:23:00.002  -3976219.1877   3382371.6054   3652511.1417   1   6   0.0000   0.0000   0.9470  -0.6318  -0.5596   0.5530   0.00  250.6
2005/04/02 00:23:30.002  -3976219.1895   3382371.6080   3652511.1430   1   6   0.0000   0.0000   0.0000  -0.7942   0.4222  -0.7226   0.00  250.2
2005/04/02 00:24:00.002  -3976219.1818   3382371.5942   3652511.1376   1   6   0.0000   0.6092   0.2666  -0.3093  -0.6665   0.1309   0.00  247.7
2005/04/02 00:24:30.000  -3976219.1894   3382371.6016   3652511.1438   1   6   0.0000   0.0000   0.0000  -0.4989  -0.3254  -0.6617   0.00  247.1
2005/04/02 00:25:00.000  -3976219.1906   3382371.6066   3652511.1436   1   6   0.0929   0.0000   0.2405  -0.5646   0.5602   0.3953   0.00  240.1
2005/04/02 00:25:30.002  -3976219.1914   3382371.6065   3652511.1431   1   6   0.5463   0.6212   0.0000   0.5525  -0.1705  -0.4970   0.00  229.7
2005/04/02 00:26:00.002  -3976219.1890   3382371.6014   3652511.1406   1   6   0.0000   0.0000   0.7753  -0.6170  -0.3604   0.6161   0.00  221.0
2005/04/02 00:26:30.002  -3976219.1930   3382371.6007   3652511.1409   1   6   0.0000   0.0000   0.0000  -0.6664  -0.5985  -0.6200   0.00  216.1
2005/04/02 00:27:00.002  -3976219.1924   3382371.6045   3652511.1434   1   6   0.0000   0.0000   0.2586  -0.4928  -0.2817  -0.3063   0.00  213.6
2005/04/02 00:27:30.000  -3976219.1969   3382371.6092   3652511.1462   1   6   0.0000   0.7438   0.5609  -0.5346  -0.9062   0.5446   0.00  208.8
2005/04/02 00:28:00.002  -3976219.1896   3382371.6053   3652511.1427   1   6   0.6457   0.0000   0.6296   0.2740   0.7135  -0.3487   0.00  214.5
2005/04/02 00:28:30.002  -3976219.1890   3382371.6071   3652511.1413   1   6   0.0000   0.4615   0.6800   0.2850  -0.3337   0.2110   0.00  222.7
2005/04/02 00:29:00.000  -3976219.1863   3382371.6031   3652511.1390   1   6   0.0000   0.0000   0.0000  -0.0744   0.1215  -0.1205   0.00  224.5
2005/04/02 00:29:30.000  -3976219.1904   3382371.6066   3652511.1409   1   6   0.0763   0.0000   0.0000   0.1514   0.2675   0.1865   0.00  225.1
2005/04/02 00:30:00.000  -3976219.2467   3382371.2965   3652510.7140   2   6   0.1388   0.0000   0.0403   0.0966   0.0884   0.0462   0.00    1.2
2005/04/02 00:30:30.001  -3976219.1798   3382371.3247   3652510.7001   2   6   0.1055   0.0600   0.0000   0.1028   0.0709  -0.1003   0.00    1.3
2005/04/02 00:31:00.000  -3976219.1937   3382371.6048   3652511.1408   1   6   0.0000   0.3404   0.0000   0.6369   0.5756  -0.2127   0.00  256.2
2005/04/02 00:31:30.002  -3976219.1865   3382371.6025   3652511.1369   1   6   0.0875   0.0000   0.0339   0.0973   0.1027  -0.0943   0.00  261.6
2005/04/02 00:32:00.000  -3976219.1799   3382371.5900   3652511.1355   1   6   0.0000   0.5612   0.0000   1.5457   1.5137  -0.9813   0.00  263.0
2005/04/02 00:32:30.001  -3976219.1388   3382371.3364   3652510.7318   2   6   0.0478   0.0701   0.0000   0.0325  -0.0807  -0.0588   0.00    1.4
2005/04/02 00:33:00.003  -3976219.1922   3382371.6065   3652511.1404   1   6   0.0000   0.0000   0.3571   0.4304   0.4463   0.5288   0.00  277.4
2005/04/02 00:33:30.000  -3976219.1919   3382371.6024   3652511.1470   1   6   0.0000   0.0000   0.0000  -0.2870  -0.1429  -0.3960   0.00  271.6
2005/04/02 00:34:00.003  -3976219.1910   3382371.6089   3652511.1508   1   6   0.0000   0.7280   0.0000   0.5692  -0.3707  -0.6780   0.00  263.9
2005/04/02 00:34:30.003  -3976219.1851   3382371.6010   3652511.1446   1   6   0.0000   0.0873   0.0000   0.2142   0.2036  -1.0880   0.00  254.0
2005/04/02 00:35:00.000  -3976219.1899   3382371.6036   3652511.1476   1   6   0.0000   0.6912   0.0000   0.2108  -0.6250  -0.7961   0.00  236.4
2005/04/02 00:35:30.000  -3976219.1796   3382371.5963   3652511.1345   1   6   0.1841   0.0000   0.0000  -0.0724   0.1352   0.1471   0.00  229.6
2005/04/02 00:36:00.000  -3976219.1922   3382371.6015   3652511.1491   1   6   0.1017   0.3267   0.2516  -0.0625  -0.3203   0.1520   0.00  228.6
2005/04/02 00:36:30.000  -3976218.7646   3382371.5189   3652510.8212   2   6   0.1271   0.0301   0.0000   0.0898   0.0740  -0.0482   0.01    1.7
2005/04/02 00:37:00.002  -3976218.7008   3382371.5561   3652510.8381   2   6   0.0570   0.0760   0.0000   0.0688  -0.0505  -0.0381   0.01    1.6
2005/04/02 00:37:30.003  -3976219.1857   3382371.6022   3652511.1371   1   6   0.0000   0.0000   0.8003  -0.8256  -0.5857   0.8688   0.01  212.4
2005/04/02 00:38:00.003  -3976219.1871   3382371.6014   3652511.1373   1   6   0.0000   0.4308   0.0000  -0.3064  -0.5214  -0.8942   0.01  205.5
2005/04/02 00:38:30.000  -3976219.1893   3382371.6014   3652511.1376   1   6   0.0000   0.0000   0.4277  -0.1101   0.1646   0.3486   0.01  199.5
2005/04/02 00:39:00.000  -3976219.1865   3382371.6050   3652511.1361   1   6   0.1388   0.0000   0.1382   0.0955   0.1236   0.1065   0.01  194.4
2005/04/02 00:39:30.000  -3976219.1865   3382371.6047   3652511.1343   1   6   0.0000   0.0000   0.0000   0.0536   0.1174  -0.2727   0.01  191.1
2005/04/02 00:40:00.000  -3976218.3031   3382371.7372   3652510.9392   2   6   0.1235   0.0748   0.0593   0.1041   0.0686   0.0902   0.01    2.4
2005/04/02 00:40:30.001  -3976218.0026   3382371.8092   3652510.9676   2   6   0.1498   0.1023   0.0688   0.0871  -0.0609   0.0449   0.01    1.3
2005/04/02 00:41:00.003  -3976219.1845   3382371.5992   3652511.1333   1   6   0.0000   0.0000   0.0000  -0.7495   0.5207  -0.3324   0.01  158.4
2005/04/02 00:41:30.000  -3976219.1839   3382371.6006   3652511.1364   1   6   0.0000   0.0000   0.0000  -0.9134  -0.9239  -0.9899   0.01  156.9
2005/04/02 00:42:00.000  -3976219.1914   3382371.6087   3652511.1376   1   6   0.0684   0.0000   0.0662   0.0481   0.0549   0.0757   0.01  160.8
2005/04/02 00:42:30.000  -3976219.1896   3382371.6047   3652511.1334   1   6   0.8475   0.0000   1.1065  -1.2517  -0.4416   1.3432   0.01  156.3
2005/04/02 00:43:00.001  -3976217.9883   3382371.8800   3652511.0289   2   6   0.0710   0.0200   0.0000   0.0785   0.0705  -0.0268   0.01    2.8
2005/04/02 00:43:30.000  -3976219.1855   3382371.6073   3652511.1276   1   6   0.8064   0.0000   0.1313   0.0381   0.2829  -0.3229   0.01  136.8
2005/04/02 00:44:00.003  -3976219.1873   3382371.6036   3652511.1332   1   6   0.2712   0.0000   0.0000  -0.5329  -0.3514   0.4431   0.01  137.7
2005/04/02 00:44:30.000  -3976219.1901   3382371.6097   3652511.1436   1   6   0.0000   0.6515   0.5273   0.4660  -0.3923   0.3664   0.01  136.4
2005/04/02 00:45:00.000  -3976219.1877   3382371.6018   3652511.1395   1   6   0.0000   0.0000   0.0000  -0.0587   0.0295  -0.0446   0.01    3.1
2005/04/02 00:45:30.002  -3976219.1790   3382371.5983   3652511.1340   2   6   0.0000   0.0347   0.0000   0.0748   0.0599   0.0212   0.01    3.1
2005/04/02 00:46:00.000  -3976219.1792   3382371.5988   3652511.1372   2   6   0.0000   0.0993   0.0566   0.0367  -0.0861   0.0286   0.01    3.2
2005/04/02 00:46:30.000  -3976219.1770   3382371.5947   3652511.1355   1   6   0.0385   0.0000   0.0934  -0.0521   0.0225   0.0632   0.01    3.2
2005/04/02 00:47:00.002  -3976219.1727   3382371.5984   3652511.1342   2   6   0.0512   0.0000   0.0000   0.0510   0.0540  -0.0311   0.01    3.3
2005/04/02 00:47:30.000  -3976219.1805   3382371.6048   3652511.1395   2   6   0.0000   0.0642   0.0000  -0.0392  -0.0724  -0.0284   0.01    3.3
2005/04/02 00:48:00.000  -3976219.1823   3382371.6087   3652511.1395   1   6   0.1392   0.0405   0.0937  -0.0161  -0.0401   0.1013   0.01    3.3
2005/04/02 00:48:30.000  -3976219.1766   3382371.6026   3652511.1295   1   6   0.0000   0.0000   0.0670  -0.0501  -0.0428   0.0096   0.01    3.4
2005/04/02 00:49:00.000  -3976219.1843   3382371.6030   3652511.1438   1   6   0.1198   0.0607   0.0721   0.0616   0.0300   0.0908   0.01    3.4
2005/04/02 00:49:30.000  -3976219.1798   3382371.6042   3652511.1350   2   6   0.0893   0.0693   0.0443   0.0729   0.0385   0.0654   0.01    3.5
2005/04/02 00:50:00.000  -3976219.1797   3382371.6026   3652511.1360   1   6   0.1031   0.0426   0.0877   0.0751   0.0575   0.0186   0.01    3.5
2005/04/02 00:50:30.000  -3976219.1791   3382371.6026   3652511.1327   1   6   0.1162   0.0524   0.0683   0.0383  -0.0313   0.1014   0.01    3.6
2005/04/02 00:51:00.000  -3976219.1842   3382371.6056   3652511.1390   1   6   0.0000   0.0499   0.0000   0.0951   0.0873  -0.0628   0.01    3.7
2005/04/02 00:51:30.000  -3976219.1858   3382371.6045   3652511.1290   1   6   0.0000   0.0914   0.0000   0.0611  -0.0583  -0.0899   0.01    3.8
2005/04/02 00:52:00.004  -3976219.1862   3382371.6010   3652511.1284   1   6   0.0525   0.0312   0.0000   0.0150  -0.0422   0.0447   0.01    3.8
2005/04/02 00:52:30.000  -3976219.1804   3382371.5992   3652511.1197   2   6   0.0000   0.0000   0.0000  -0.0899  -0.0686  -0.1025   0.01    3.9
2005/04/02 00:53:00.004  -3976219.1834   3382371.5987   3652511.1278   1   6   0.1051   0.0000   0.0000  -0.0648  -0.0185   0.0570   0.01    3.9
2005/04/02 00:53:30.000  -3976219.1829   3382371.6010   3652511.1333   2   6   0.0000   0.0000   0.0000  -0.0755  -0.0710  -0.0955   0.01    3.9
2005/04/02 00:54:00.002  -3976219.1877   3382371.6046   3652511.1415   2   6   0.0000   0.0000   0.0907  -0.0843  -0.0796   0.0957   0.01    3.9
2005/04/02 00:54:30.000  -3976219.1876   3382371.6050   3652511.1418   1   6   0.1558   0.0000   0.0690  -0.0440  -0.0165   0.0894   0.01    4.0
2005/04/02 00:55:00.000  -3976219.1834   3382371.6003   3652511.1402   1   6   0.0000   0.0000   0.0000   0.0455   0.0503  -0.0854   0.01    6.4
2005/04/02 00:55:30.004  -3976219.1919   3382371.6058   3652511.1526   1   6   0.0000   0.0000   0.0000  -0.0848  -0.0764  -0.1230   0.01    7.0
2005/04/02 00:56:00.004  -3976219.1957   3382371.6121   3652511.1465   1   6   0.0000   0.0534   0.0000   0.0769   0.0629  -0.0726   0.01    7.5
2005/04/02 00:56:30.004  -3976219.2557   3382371.6332   3652511.1423   2   6   0.0000   0.0367   0.0447   0.0640   0.0526  -0.0451   0.01    8.1
2005/04/02 00:57:00.003  -3976219.2137   3382371.6368   3652511.2024   2   5   0.0771   0.0000   0.1165  -0.0461   0.0873   0.0677   0.01    6.3
2005/04/02 00:57:30.000  -3976219.2186   3382371.6348   3652511.2188   1   5   0.0000   0.0452   0.1080  -0.0566   0.0683  -0.0484   0.01    6.5
2005/04/02 00:58:00.005  -3976219.1989   3382371.6199   3652511.1906   1   5   0.0524   0.0000   0.1112  -0.0493   0.1103  -0.0595   0.01    6.7
2005/04/02 00:58:30.000  -3976219.2217   3382371.6447   3652511.2298   1   5   0.1035   0.0909   0.1282   0.0673   0.1098  -0.0487   0.01    6.9
2005/04/02 00:59:00.000  -3976219.2064   3382371.6280   3652511.2012   1   5   0.1087   0.0833   0.1409  -0.0596   0.0897  -0.0821   0.01    7.1
2005/04/02 00:59:30.000  -3976219.1892   3382371.6070   3652511.1670   1   5   0.1281   0.0800   0.1702  -0.0508   0.1179  -0.0348   0.01    7.3
