% program   : rnx2rtkp ver.EX 2.5.0
% inp file  : ../rinex/07590920.05o
% inp file  : ../rinex/30400920.05n
% inp file  : ../rinex/30400920.05o
% obs start : 2005/04/02 00:00:00.0 GPST (week1316 518400.0s)
% obs end   : 2005/04/02 00:59:30.0 GPST (week1316 521970.0s)
% ref pos   :  -3978241.9580   3382840.2340   3649900.8530
%
% (x/y/z-ecef=WGS84,Q=1:fix,2:float,3:sbas,4:dgps,5:single,6:ppp,ns=# of satellites)
%  GPST                      x-ecef(m)      y-ecef(m)      z-ecef(m)   Q  ns   sdx(m)   sdy(m)   sdz(m)  sdxy(m)  sdyz(m)  sdzx(m) age(s)  ratio
2005/04/02 00:00:00.000  -3976219.4905   3382372.2425   3652511.5097   2   7   2.4253   2.7120   2.0618  -2.3042   1.8475  -1.7252   0.00    0.0
2005/04/02 00:00:30.000  -3976218.9693   3382371.6608   3652511.1111   2   7   1.1517   1.0677   0.8506  -0.7667   0.5319  -0.5814   0.00    0.0
2005/04/02 00:01:00.000  -3976218.9437   3382371.6044   3652511.1202   2   7   0.7961   0.6223   0.4901  -0.3041   0.2320  -0.3345   0.00    0.0
2005/04/02 00:01:30.000  -3976219.1839   3382371.6022   3652511.1361   1   7   0.0045   0.0050   0.0037  -0.0043   0.0034  -0.0032   0.00   40.8
2005/04/02 00:02:00.000  -3976219.1846   3382371.6018   3652511.1371   1   7   0.0041   0.0045   0.0033  -0.0038   0.0030  -0.0029   0.00   54.9
2005/04/02 00:02:30.000  -3976219.1847   3382371.6015   3652511.1374   1   7   0.0037   0.0041   0.0030  -0.0035   0.0028  -0.0026   0.00   64.4
2005/04/02 00:03:00.000  -3976219.1859   3382371.6026   3652511.1383   1   7   0.0034   0.0038   0.0028  -0.0032   0.0026  -0.0024   0.00   79.6
2005/04/02 00:03:30.000  -3976219.1871   3382371.6040   3652511.1392   1   7   0.0032   0.0035   0.0026  -0.0030   0.0024  -0.0023   0.00   75.2
2005/04/02 00:04:00.000  -3976219.1876   3382371.6049   3652511.1400   1   7   0.0030   0.0033   0.0025  -0.0028   0.0023  -0.0021   0.00   71.3
2005/04/02 00:04:30.000  -3976219.1875   3382371.6041   3652511.1399   1   7   0.0029   0.0031   0.0024  -0.0027   0.0021  -0.0020   0.00   60.9
2005/04/02 00:05:00.000  -3976219.1873   3382371.6040   3652511.1404   1   7   0.0027   0.0030   0.0023  -0.0026   0.0020  -0.0019   0.00   60.4
2005/04/02 00:05:30.000  -3976219.1872   3382371.6043   3652511.1412   1   7   0.0026   0.0029   0.0022  -0.0025   0.0019  -0.0019   0.00   61.0
2005/04/02 00:06:00.000  -3976219.1868   3382371.6041   3652511.1415   1   7   0.0025   0.0027   0.0021  -0.0024   0.0019  -0.0018   0.00   60.3
2005/04/02 00:06:30.000  -3976219.1865   3382371.6040   3652511.1417   1   7   0.0024   0.0026   0.0020  -0.0023   0.0018  -0.0017   0.00   62.6
2005/04/02 00:07:00.000  -3976219.1865   3382371.6044   3652511.1418   1   7   0.0023   0.0026   0.0020  -0.0022   0.0017  -0.0017   0.00   68.5
2005/04/02 00:07:30.000  -3976219.1865   3382371.6048   3652511.1421   1   7   0.0023   0.0025   0.0019  -0.0021   0.0017  -0.0016   0.00   74.2
2005/04/02 00:08:00.000  -3976219.1864   3382371.6049   3652511.1421   1   7   0.0022   0.0024   0.0018  -0.0021   0.0016  -0.0016   0.00   83.3
2005/04/02 00:08:30.000  -3976219.1863   3382371.6051   3652511.1420   1   7   0.0021   0.0023   0.0018  -0.0020   0.0016  -0.0015   0.00   92.3
2005/04/02 00:09:00.000  -3976219.1864   3382371.6052   3652511.1419   1   7   0.0021   0.0023   0.0017  -0.0019   0.0015  -0.0015   0.00  106.6
2005/04/02 00:09:30.000  -3976219.1857   3382371.6042   3652511.1412   1   7   0.0020   0.0022   0.0017  -0.0019   0.0015  -0.0014   0.00  109.9
2005/04/02 00:10:00.000  -3976219.1857   3382371.6040   3652511.1411   1   7   0.0020   0.0022   0.0017  -0.0019   0.0015  -0.0014   0.00  115.9
2005/04/02 00:10:30.000  -3976219.1856   3382371.6040   3652511.1410   1   7   0.0019   0.0021   0.0016  -0.0018   0.0014  -0.0014   0.00  128.9
2005/04/02 00:11:00.000  -3976219.1854   3382371.6038   3652511.1409   1   7   0.0019   0.0021   0.0016  -0.0018   0.0014  -0.0013   0.00  139.4
2005/04/02 00:11:30.000  -3976219.1852   3382371.6033   3652511.1408   1   7   0.0018   0.0020   0.0016  -0.0017   0.0014  -0.0013   0.00  167.3
2005/04/02 00:12:00.000  -3976219.1853   3382371.6033   3652511.1410   1   7   0.0018   0.0020   0.0015  -0.0017   0.0013  -0.0013   0.00  184.3
2005/04/02 00:12:30.000  -3976219.1852   3382371.6030   3652511.1409   1   7   0.0018   0.0019   0.0015  -0.0017   0.0013  -0.0013   0.00  201.0
2005/04/02 00:13:00.000  -3976219.1852   3382371.6030   3652511.1411   1   7   0.0017   0.0019   0.0015  -0.0016   0.0013  -0.0012   0.00  215.5
2005/04/02 00:13:30.000  -3976219.1851   3382371.6031   3652511.1413   1   7   0.0017   0.0019   0.0015  -0.0016   0.0013  -0.0012   0.00  228.4
2005/04/02 00:14:00.000  -3976219.1854   3382371.6034   3652511.1416   1   7   0.0017   0.0018   0.0015  -0.0016   0.0013  -0.0012   0.00  244.7
2005/04/02 00:14:30.000  -3976219.1854   3382371.6033   3652511.1417   1   7   0.0017   0.0018   0.0014  -0.0015   0.0012  -0.0012   0.00  247.0
2005/04/02 00:15:00.000  -3976219.1855   3382371.6034   3652511.1417   1   7   0.0016   0.0018   0.0014  -0.0015   0.0012  -0.0012   0.00  247.0
2005/04/02 00:15:30.000  -3976219.1856   3382371.6034   3652511.1418   1   7   0.0016   0.0017   0.0014  -0.0015   0.0012  -0.0012   0.00  246.5
2005/04/02 00:16:00.000  -3976219.1856   3382371.6033   3652511.1417   1   7   0.0016   0.0017   0.0014  -0.0015   0.0012  -0.0011   0.00  244.7
2005/04/02 00:16:30.000  -3976219.1857   3382371.6033   3652511.1417   1   7   0.0016   0.0017   0.0014  -0.0014   0.0012  -0.0011   0.00  242.4
2005/04/02 00:17:00.000  -3976219.1858   3382371.6034   3652511.1418   1   7   0.0015   0.0017   0.0013  -0.0014   0.0011  -0.0011   0.00  253.6
2005/04/02 00:17:30.000  -3976219.1860   3382371.6035   3652511.1418   1   7   0.0015   0.0016   0.0013  -0.0014   0.0011  -0.0011   0.00  262.4
2005/04/02 00:18:00.000  -3976219.1862   3382371.6035   3652511.1419   1   6   0.0016   0.0016   0.0015  -0.0014   0.0012  -0.0013   0.00  163.8
2005/04/02 00:18:30.000  -3976219.1861   3382371.6034   3652511.1418   1   6   0.0016   0.0016   0.0015  -0.0014   0.0012  -0.0012   0.00  166.5
2005/04/02 00:19:00.000  -3976219.1864   3382371.6034   3652511.1419   1   6   0.0016   0.0016   0.0015  -0.0014   0.0012  -0.0012   0.00  171.1
2005/04/02 00:19:30.000  -3976219.1865   3382371.6035   3652511.1418   1   6   0.0016   0.0016   0.0015  -0.0014   0.0012  -0.0012   0.00  179.5
2005/04/02 00:20:00.000  -3976219.1867   3382371.6036   3652511.1418   1   6   0.0015   0.0016   0.0015  -0.0014   0.0011  -0.0012   0.00  184.2
2005/04/02 00:20:30.000  -3976219.1867   3382371.6036   3652511.1418   1   6   0.0015   0.0015   0.0014  -0.0014   0.0011  -0.0012   0.00  186.7
2005/04/02 00:20:59.999  -3976219.1867   3382371.6034   3652511.1418   1   6   0.0015   0.0015   0.0014  -0.0013   0.0011  -0.0012   0.00  187.1
2005/04/02 00:21:30.000  -3976219.1866   3382371.6034   3652511.1418   1   6   0.0015   0.0015   0.0014  -0.0013   0.0011  -0.0012   0.00  193.9
2005/04/02 00:22:00.000  -3976219.1867   3382371.6036   3652511.1419   1   6   0.0015   0.0015   0.0014  -0.0013   0.0011  -0.0012   0.00  209.4
2005/04/02 00:22:30.000  -3976219.1867   3382371.6037   3652511.1419   1   6   0.0015   0.0015   0.0014  -0.0013   0.0011  -0.0012   0.00  221.7
2005/04/02 00:23:00.000  -3976219.1868   3382371.6038   3652511.1419   1   6   0.0014   0.0015   0.0014  -0.0013   0.0011  -0.0011   0.00  237.4
2005/04/02 00:23:30.000  -3976219.1869   3382371.6039   3652511.1419   1   6   0.0014   0.0014   0.0014  -0.0013   0.0011  -0.0011   0.00  250.5
2005/04/02 00:24:00.000  -3976219.1867   3382371.6037   3652511.1418   1   6   0.0014   0.0014   0.0014  -0.0013   0.0011  -0.0011   0.00  257.2
2005/04/02 00:24:30.000  -3976219.1868   3382371.6036   3652511.1419   1   6   0.0014   0.0014   0.0014  -0.0013   0.0010  -0.0011   0.00  268.9
2005/04/02 00:25:00.000  -3976219.1869   3382371.6037   3652511.1419   1   6   0.0014   0.0014   0.0014  -0.0012   0.0010  -0.0011   0.00  281.5
2005/04/02 00:25:30.000  -3976219.1870   3382371.6038   3652511.1419   1   6   0.0014   0.0014   0.0014  -0.0012   0.0010  -0.0011   0.00  294.2
2005/04/02 00:26:00.000  -3976219.1871   3382371.6037   3652511.1419   1   6   0.0014   0.0014   0.0014  -0.0012   0.0010  -0.0011   0.00  304.1
2005/04/02 00:26:30.000  -3976219.1872   3382371.6036   3652511.1419   1   6   0.0014   0.0014   0.0013  -0.0012   0.0010  -0.0011   0.00  320.8
2005/04/02 00:27:00.000  -3976219.1873   3382371.6037   3652511.1419   1   6   0.0014   0.0014   0.0013  -0.0012   0.0010  -0.0011   0.00  339.4
2005/04/02 00:27:30.000  -3976219.1875   3382371.6038   3652511.1420   1   6   0.0013   0.0013   0.0013  -0.0012   0.0010  -0.0011   0.00  350.5
2005/04/02 00:28:00.000  -3976219.1876   3382371.6038   3652511.1420   1   6   0.0013   0.0013   0.0013  -0.0012   0.0010  -0.0011   0.00  364.7
2005/04/02 00:28:30.000  -3976219.1876   3382371.6039   3652511.1420   1   6   0.0013   0.0013   0.0013  -0.0012   0.0010  -0.0011   0.00  384.0
2005/04/02 00:29:00.000  -3976219.1876   3382371.6039   3652511.1420   1   6   0.0013   0.0013   0.0013  -0.0012   0.0010  -0.0011   0.00  404.9
2005/04/02 00:29:30.000  -3976219.1877   3382371.6040   3652511.1420   1   6   0.0013   0.0013   0.0013  -0.0011   0.0010  -0.0011   0.00  415.4
2005/04/02 00:30:00.000  -3976219.1877   3382371.6040   3652511.1420   1   6   0.0013   0.0013   0.0013  -0.0011   0.0010  -0.0010   0.00  407.8
2005/04/02 00:30:30.000  -3976219.1877   3382371.6039   3652511.1420   1   6   0.0013   0.0013   0.0013  -0.0011   0.0010  -0.0010   0.00  400.2
2005/04/02 00:31:00.000  -3976219.1879   3382371.6039   3652511.1419   1   6   0.0013   0.0013   0.0013  -0.0011   0.0010  -0.0010   0.00  400.9
2005/04/02 00:31:30.000  -3976219.1878   3382371.6039   3652511.1419   1   6   0.0013   0.0013   0.0013  -0.0011   0.0009  -0.0010   0.00  406.0
2005/04/02 00:32:00.000  -3976219.1877   3382371.6036   3652511.1418   1   6   0.0013   0.0013   0.0013  -0.0011   0.0009  -0.0010   0.00  405.6
2005/04/02 00:32:30.000  -3976219.1877   3382371.6036   3652511.1418   1   6   0.0013   0.0012   0.0013  -0.0011   0.0009  -0.0010   0.00  410.5
2005/04/02 00:33:00.000  -3976219.1878   3382371.6037   3652511.1418   1   6   0.0012   0.0012   0.0013  -0.0011   0.0009  -0.0010   0.00  430.9
2005/04/02 00:33:30.000  -3976219.1878   3382371.6036   3652511.1418   1   6   0.0012   0.0012   0.0013  -0.0011   0.0009  -0.0010   0.00  457.4
2005/04/02 00:34:00.000  -3976219.1879   3382371.6037   3652511.1420   1   6   0.0012   0.0012   0.0013  -0.0011   0.0009  -0.0010   0.00  501.7
2005/04/02 00:34:30.000  -3976219.1878   3382371.6037   3652511.1420   1   6   0.0012   0.0012   0.0013  -0.0011   0.0009  -0.0010   0.00  549.3
2005/04/02 00:35:00.000  -3976219.1878   3382371.6037   3652511.1421   1   6   0.0012   0.0012   0.0013  -0.0011   0.0009  -0.0010   0.00  588.8
2005/04/02 00:35:30.000  -3976219.1877   3382371.6035   3652511.1419   1   6   0.0012   0.0012   0.0013  -0.0011   0.0009  -0.0010   0.00  606.1
2005/04/02 00:36:00.000  -3976219.1878   3382371.6035   3652511.1420   1   6   0.0012   0.0012   0.0013  -0.0011   0.0009  -0.0010   0.00  613.6
2005/04/02 00:36:30.000  -3976219.1877   3382371.6033   3652511.1420   1   6   0.0012   0.0012   0.0013  -0.0010   0.0009  -0.0010   0.01  615.9
2005/04/02 00:37:00.000  -3976219.1877   3382371.6033   3652511.1420   1   6   0.0012   0.0012   0.0013  -0.0010   0.0009  -0.0010   0.01  626.0
2005/04/02 00:37:30.000  -3976219.1877   3382371.6033   3652511.1419   1   6   0.0012   0.0012   0.0013  -0.0010   0.0009  -0.0010   0.01  627.8
2005/04/02 00:38:00.000  -3976219.1877   3382371.6033   3652511.1419   1   6   0.0012   0.0012   0.0013  -0.0010   0.0009  -0.0010   0.01  631.6
2005/04/02 00:38:30.000  -3976219.1877   3382371.6033   3652511.1418   1   6   0.0012   0.0012   0.0013  -0.0010   0.0009  -0.0010   0.01  630.8
2005/04/02 00:39:00.000  -3976219.1877   3382371.6033   3652511.1418   1   6   0.0012   0.0011   0.0013  -0.0010   0.0009  -0.0010   0.01  627.2
2005/04/02 00:39:30.000  -3976219.1877   3382371.6034   3652511.1417   1   6   0.0012   0.0011   0.0013  -0.0010   0.0009  -0.0010   0.01  642.7
2005/04/02 00:40:00.000  -3976219.1876   3382371.6034   3652511.1417   1   6   0.0012   0.0011   0.0013  -0.0010   0.0009  -0.0010   0.01  643.0
2005/04/02 00:40:30.000  -3976219.1877   3382371.6033   3652511.1417   1   6   0.0012   0.0011   0.0013  -0.0010   0.0009  -0.0010   0.01  649.3
2005/04/02 00:41:00.000  -3976219.1876   3382371.6033   3652511.1416   1   6   0.0012   0.0011   0.0013  -0.0010   0.0009  -0.0010   0.01  642.9
2005/04/02 00:41:30.000  -3976219.1876   3382371.6032   3652511.1416   1   6   0.0012   0.0011   0.0013  -0.0010   0.0009  -0.0010   0.01  641.8
2005/04/02 00:42:00.000  -3976219.1877   3382371.6033   3652511.1416   1   6   0.0012   0.0011   0.0013  -0.0010   0.0009  -0.0010   0.01  652.1
2005/04/02 00:42:30.000  -3976219.1877   3382371.6034   3652511.1415   1   6   0.0011   0.0011   0.0013  -0.0010   0.0009  -0.0010   0.01  656.6
2005/04/02 00:43:00.000  -3976219.1878   3382371.6035   3652511.1414   1   6   0.0011   0.0011   0.0013  -0.0010   0.0008  -0.0010   0.01  662.3
2005/04/02 00:43:30.000  -3976219.1878   3382371.6036   3652511.1413   1   6   0.0011   0.0011   0.0013  -0.0010   0.0008  -0.0010   0.01  659.2
2005/04/02 00:44:00.000  -3976219.1878   3382371.6036   3652511.1412   1   6   0.0011   0.0011   0.0013  -0.0010   0.0008  -0.0010   0.01  654.3
2005/04/02 00:44:30.000  -3976219.1878   3382371.6037   3652511.1413   1   6   0.0011   0.0011   0.0013  -0.0010   0.0008  -0.0010   0.01  655.8
2005/04/02 00:45:00.000  -3976219.1878   3382371.6037   3652511.1412   1   6   0.0011   0.0011   0.0013  -0.0010   0.0008  -0.0010   0.01  665.2
2005/04/02 00:45:30.000  -3976219.1877   3382371.6036   3652511.1412   1   6   0.0011   0.0011   0.0013  -0.0010   0.0008  -0.0010   0.01  652.3
2005/04/02 00:46:00.000  -3976219.1876   3382371.6035   3652511.1411   1   6   0.0011   0.0011   0.0013  -0.0010   0.0008  -0.0010   0.01  640.7
2005/04/02 00:46:30.000  -3976219.1874   3382371.6034   3652511.1411   1   6   0.0011   0.0011   0.0013  -0.0010   0.0008  -0.0009   0.01  637.6
2005/04/02 00:47:00.000  -3976219.1872   3382371.6033   3652511.1410   1   6   0.0011   0.0011   0.0013  -0.0009   0.0008  -0.0009   0.01  628.6
2005/04/02 00:47:30.000  -3976219.1871   3382371.6034   3652511.1410   1   6   0.0011   0.0011   0.0013  -0.0009   0.0008  -0.0009   0.01  628.6
2005/04/02 00:48:00.000  -3976219.1871   3382371.6035   3652511.1410   1   6   0.0011   0.0011   0.0013  -0.0009   0.0008  -0.0009   0.01  632.8
2005/04/02 00:48:30.000  -3976219.1870   3382371.6035   3652511.1409   1   6   0.0011   0.0011   0.0013  -0.0009   0.0008  -0.0009   0.01  620.3
2005/04/02 00:49:00.000  -3976219.1869   3382371.6035   3652511.1409   1   6   0.0011   0.0010   0.0013  -0.0009   0.0008  -0.0009   0.01  615.3
2005/04/02 00:49:30.000  -3976219.1868   3382371.6035   3652511.1409   1   6   0.0011   0.0010   0.0013  -0.0009   0.0008  -0.0009   0.01  609.5
2005/04/02 00:50:00.000  -3976219.1868   3382371.6035   3652511.1408   1   6   0.0011   0.0010   0.0013  -0.0009   0.0008  -0.0009   0.01  609.4
2005/04/02 00:50:30.000  -3976219.1867   3382371.6035   3652511.1407   1   6   0.0011   0.0010   0.0013  -0.0009   0.0008  -0.0009   0.01  610.6
2005/04/02 00:51:00.000  -3976219.1867   3382371.6036   3652511.1407   1   6   0.0011   0.0010   0.0013  -0.0009   0.0008  -0.0009   0.01  618.1
2005/04/02 00:51:30.000  -3976219.1867   3382371.6036   3652511.1407   1   6   0.0011   0.0010   0.0013  -0.0009   0.0008  -0.0009   0.01  625.7
2005/04/02 00:52:00.000  -3976219.1867   3382371.6036   3652511.1406   1   6   0.0011   0.0010   0.0013  -0.0009   0.0008  -0.0009   0.01  631.2
2005/04/02 00:52:30.000  -3976219.1867   3382371.6036   3652511.1404   1   6   0.0011   0.0010   0.0013  -0.0009   0.0008  -0.0009   0.01  621.6
2005/04/02 00:53:00.000  -3976219.1867   3382371.6036   3652511.1403   1   6   0.0011   0.0010   0.0013  -0.0009   0.0008  -0.0009   0.01  628.4
2005/04/02 00:53:30.000  -3976219.1867   3382371.6036   3652511.1403   1   6   0.0011   0.0010   0.0013  -0.0009   0.0008  -0.0009   0.01  637.3
2005/04/02 00:54:00.000  -3976219.1867   3382371.6036   3652511.1403   1   6   0.0011   0.0010   0.0013  -0.0009   0.0008  -0.0009   0.01  651.2
2005/04/02 00:54:30.000  -3976219.1867   3382371.6036   3652511.1404   1   6   0.0011   0.0010   0.0013  -0.0009   0.0008  -0.0009   0.01  657.0
2005/04/02 00:55:00.000  -3976219.1867   3382371.6036   3652511.1404   1   6   0.0011   0.0010   0.0013  -0.0009   0.0008  -0.0009   0.01  665.8
2005/04/02 00:55:30.000  -3976219.1867   3382371.6036   3652511.1405   1   6   0.0011   0.0010   0.0013  -0.0009   0.0008  -0.0009   0.01  684.7
2005/04/02 00:56:00.000  -3976219.1869   3382371.6037   3652511.1405   1   6   0.0011   0.0010   0.0013  -0.0009   0.0008  -0.0009   0.01  693.5
2005/04/02 00:56:30.000  -3976219.1868   3382371.6037   3652511.1405   1   6   0.0011   0.0010   0.0013  -0.0009   0.0008  -0.0009   0.01  694.6
2005/04/02 00:57:00.000  -3976219.1878   3382371.6057   3652511.1424   1   5   0.0013   0.0016   0.0018  -0.0013   0.0015  -0.0013   0.01  999.9
2005/04/02 00:57:30.000  -3976219.1877   3382371.6055   3652511.1424   1   5   0.0013   0.0016   0.0018  -0.0013   0.0015  -0.0013   0.01  999.9
2005/04/02 00:58:00.000  -3976219.1875   3382371.6053   3652511.1423   1   5   0.0013   0.0016   0.0018  -0.0013   0.0015  -0.0013   0.01  999.9
2005/04/02 00:58:30.000  -3976219.1875   3382371.6052   3652511.1423   1   5   0.0013   0.0016   0.0018  -0.0013   0.0015  -0.0013   0.01  999.9
2005/04/02 00:59:00.000  -3976219.1873   3382371.6051   3652511.1423   1   5   0.0013   0.0016   0.0018  -0.0013   0.0015  -0.0013   0.01  999.9
2005/04/02 00:59:30.000  -3976219.1872   3382371.6049   3652511.1422   1   5   0.0013   0.0016   0.0018  -0.0013   0.0015  -0.0013   0.01  999.9
