% program   : rnx2rtkp ver.EX 2.5.0
% inp file  : ../rinex/07590920.05o
% inp file  : ../rinex/30400920.05n
% obs start : 2005/04/02 00:00:00.0 GPST (week1316 518400.0s)
% obs end   : 2005/04/02 00:59:30.0 GPST (week1316 521970.0s)
%
% (lat/lon/height=WGS84/ellipsoidal,Q=1:fix,2:float,3:sbas,4:dgps,5:single,6:ppp,ns=# of satellites)
%  GPST                    latitude(d'")   longitude(d'")  height(m)   Q  ns   sdn(m)   sde(m)   sdu(m)  sdne(m)  sdeu(m)  sdue(m) age(s)  ratio
2005/04/02 00:00:00.000   35 09 39.14875  139 36 49.78199    70.5104   5   7   3.2837   2.6323   7.2852   1.1928  -3.0176  -2.3495   0.00    0.0
2005/04/02 00:00:30.000   35 09 39.15058  139 36 49.79084    70.1096   5   7   3.2910   2.6302   7.2808   1.1924  -3.0070  -2.3485   0.00    0.0
2005/04/02 00:01:00.000   35 09 39.14687  139 36 49.79522    69.8978   5   7   3.2984   2.6280   7.2760   1.1919  -2.9961  -2.3474   0.00    0.0
2005/04/02 00:01:30.000   35 09 39.13691  139 36 49.79082    70.6229   5   7   3.3058   2.6259   7.2707   1.1915  -2.9850  -2.3462   0.00    0.0
2005/04/02 00:02:00.000   35 09 39.13430  139 36 49.79349    69.6104   5   7   3.3133   2.6238   7.2650   1.1910  -2.9737  -2.3450   0.00    0.0
2005/04/02 00:02:30.000   35 09 39.14303  139 36 49.78141    70.7174   5   7   3.3209   2.6217   7.2589   1.1906  -2.9622  -2.3437   0.00    0.0
2005/04/02 00:03:00.000   35 09 39.14657  139 36 49.79595    70.4963   5   7   3.3286   2.6197   7.2524   1.1901  -2.9505  -2.3424   0.00    0.0
2005/04/02 00:03:30.000   35 09 39.14383  139 36 49.80515    70.0180   5   7   3.3363   2.6176   7.2455   1.1896  -2.9385  -2.3409   0.00    0.0
2005/04/02 00:04:00.000   35 09 39.13738  139 36 49.79327    70.8762   5   7   3.3441   2.6156   7.2382   1.1891  -2.9263  -2.3395   0.00    0.0
2005/04/02 00:04:30.000   35 09 39.15174  139 36 49.79111    70.3339   5   7   3.3520   2.6136   7.2306   1.1885  -2.9139  -2.3380   0.00    0.0
2005/04/02 00:05:00.000   35 09 39.16118  139 36 49.80078    70.2929   5   7   3.3599   2.6117   7.2226   1.1880  -2.9013  -2.3364   0.00    0.0
2005/04/02 00:05:30.000   35 09 39.13999  139 36 49.79408    69.8630   5   7   3.3679   2.6097   7.2142   1.1875  -2.8886  -2.3348   0.00    0.0
2005/04/02 00:06:00.000   35 09 39.15216  139 36 49.79321    69.8554   5   7   3.3760   2.6078   7.2056   1.1869  -2.8756  -2.3331   0.00    0.0
2005/04/02 00:06:30.000   35 09 39.13553  139 36 49.79890    70.5906   5   7   3.3842   2.6060   7.1966   1.1863  -2.8625  -2.3314   0.00    0.0
2005/04/02 00:07:00.000   35 09 39.13900  139 36 49.80371    70.2390   5   7   3.3924   2.6042   7.1873   1.1857  -2.8491  -2.3296   0.00    0.0
2005/04/02 00:07:30.000   35 09 39.13342  139 36 49.80084    70.4850   5   7   3.4007   2.6024   7.1778   1.1852  -2.8356  -2.3278   0.00    0.0
2005/04/02 00:08:00.000   35 09 39.15193  139 36 49.79546    70.5798   5   7   3.4091   2.6006   7.1680   1.1846  -2.8220  -2.3260   0.00    0.0
2005/04/02 00:08:30.000   35 09 39.14804  139 36 49.80375    70.0188   5   7   3.4176   2.5989   7.1579   1.1840  -2.8082  -2.3241   0.00    0.0
2005/04/02 00:09:00.000   35 09 39.14136  139 36 49.80461    70.2374   5   7   3.4261   2.5973   7.1475   1.1833  -2.7942  -2.3223   0.00    0.0
2005/04/02 00:09:30.000   35 09 39.14087  139 36 49.80021    70.0212   5   7   3.4347   2.5956   7.1370   1.1827  -2.7800  -2.3203   0.00    0.0
2005/04/02 00:10:00.000   35 09 39.14490  139 36 49.79965    69.9699   5   7   3.4434   2.5941   7.1262   1.1821  -2.7657  -2.3184   0.00    0.0
2005/04/02 00:10:30.000   35 09 39.14876  139 36 49.79691    70.0448   5   7   3.4521   2.5925   7.1152   1.1815  -2.7513  -2.3164   0.00    0.0
2005/04/02 00:11:00.000   35 09 39.13800  139 36 49.80243    69.6679   5   7   3.4610   2.5911   7.1040   1.1808  -2.7368  -2.3144   0.00    0.0
2005/04/02 00:11:30.000   35 09 39.14654  139 36 49.80309    69.2069   5   7   3.4699   2.5896   7.0927   1.1802  -2.7221  -2.3124   0.00    0.0
2005/04/02 00:12:00.000   35 09 39.13340  139 36 49.79777    71.0471   5   7   3.4788   2.5883   7.0812   1.1795  -2.7072  -2.3104   0.00    0.0
2005/04/02 00:12:30.000   35 09 39.13015  139 36 49.80717    70.0408   5   7   3.4879   2.5869   7.0695   1.1789  -2.6923  -2.3084   0.00    0.0
2005/04/02 00:13:00.000   35 09 39.14847  139 36 49.78700    70.1445   5   7   3.4970   2.5857   7.0577   1.1782  -2.6772  -2.3064   0.00    0.0
2005/04/02 00:13:30.000   35 09 39.14546  139 36 49.80039    69.4773   5   7   3.5062   2.5845   7.0458   1.1776  -2.6621  -2.3044   0.00    0.0
2005/04/02 00:14:00.000   35 09 39.13006  139 36 49.80480    69.2991   5   7   3.5155   2.5833   7.0337   1.1769  -2.6468  -2.3023   0.00    0.0
2005/04/02 00:14:30.000   35 09 39.13905  139 36 49.80180    69.6624   5   7   3.5249   2.5822   7.0216   1.1762  -2.6314  -2.3003   0.00    0.0
2005/04/02 00:15:00.000   35 09 39.14050  139 36 49.79131    70.2000   5   7   3.5343   2.5812   7.0094   1.1755  -2.6158  -2.2983   0.00    0.0
2005/04/02 00:15:30.000   35 09 39.13540  139 36 49.80128    69.9168   5   7   3.5438   2.5802   6.9971   1.1749  -2.6002  -2.2963   0.00    0.0
2005/04/02 00:16:00.000   35 09 39.13476  139 36 49.79455    69.7511   5   7   3.5534   2.5793   6.9848   1.1742  -2.5845  -2.2943   0.00    0.0
2005/04/02 00:16:30.000   35 09 39.13207  139 36 49.79973    70.2474   5   7   3.5630   2.5785   6.9724   1.1735  -2.5687  -2.2923   0.00    0.0
2005/04/02 00:17:00.000   35 09 39.13799  139 36 49.79021    70.4091   5   7   3.5727   2.5777   6.9599   1.1728  -2.5528  -2.2903   0.00    0.0
2005/04/02 00:17:30.000   35 09 39.13495  139 36 49.80173    69.6525   5   7   3.5825   2.5770   6.9474   1.1721  -2.5369  -2.2883   0.00    0.0
2005/04/02 00:18:00.000   35 09 39.15529  139 36 49.80426    70.7153   5   6   4.0659   2.6818   8.1448   1.6704  -1.7815   1.7047   0.00    0.0
2005/04/02 00:18:30.000   35 09 39.14568  139 36 49.81166    70.8065   5   6   4.0858   2.6824   8.1590   1.6776  -1.7434   1.7626   0.00    0.0
2005/04/02 00:19:00.000   35 09 39.15473  139 36 49.79871    70.3112   5   6   4.1060   2.6831   8.1733   1.6850  -1.7041   1.8194   0.00    0.0
2005/04/02 00:19:30.000   35 09 39.14732  139 36 49.80735    70.4100   5   6   4.1265   2.6840   8.1876   1.6927  -1.6636   1.8751   0.00    0.0
2005/04/02 00:20:00.000   35 09 39.14816  139 36 49.80366    71.1814   5   6   4.1472   2.6850   8.2021   1.7005  -1.6218   1.9300   0.00    0.0
2005/04/02 00:20:30.000   35 09 39.13965  139 36 49.80247    70.7564   5   6   4.1681   2.6861   8.2168   1.7085  -1.5786   1.9840   0.00    0.0
2005/04/02 00:20:59.999   35 09 39.14431  139 36 49.79774    71.1331   5   6   4.1894   2.6874   8.2315   1.7167  -1.5339   2.0372   0.00    0.0
2005/04/02 00:21:30.000   35 09 39.13014  139 36 49.80821    70.6684   5   6   4.2109   2.6888   8.2464   1.7252  -1.4876   2.0897   0.00    0.0
2005/04/02 00:22:00.000   35 09 39.14454  139 36 49.80926    70.8165   5   6   4.2326   2.6903   8.2614   1.7338  -1.4395   2.1415   0.00    0.0
2005/04/02 00:22:30.000   35 09 39.13626  139 36 49.79752    70.2970   5   6   4.2546   2.6919   8.2765   1.7426  -1.3894   2.1927   0.00    0.0
2005/04/02 00:23:00.000   35 09 39.14538  139 36 49.81000    69.2825   5   6   4.2768   2.6937   8.2917   1.7516  -1.3371   2.2432   0.00    0.0
2005/04/02 00:23:30.000   35 09 39.15379  139 36 49.81132    70.6932   5   6   4.2993   2.6956   8.3071   1.7608  -1.2824   2.2933   0.00    0.0
2005/04/02 00:24:00.000   35 09 39.13494  139 36 49.79904    70.2616   5   6   4.3220   2.6976   8.3227   1.7702  -1.2248   2.3427   0.00    0.0
2005/04/02 00:24:30.000   35 09 39.14545  139 36 49.81282    70.3513   5   6   4.3450   2.6998   8.3384   1.7797  -1.1641   2.3917   0.00    0.0
2005/04/02 00:25:00.000   35 09 39.14745  139 36 49.79953    69.2624   5   6   4.3682   2.7021   8.3542   1.7895  -1.0997   2.4402   0.00    0.0
2005/04/02 00:25:30.000   35 09 39.14379  139 36 49.80430    70.3348   5   6   4.3916   2.7045   8.3701   1.7994  -1.0308   2.4882   0.00    0.0
2005/04/02 00:26:00.000   35 09 39.14550  139 36 49.80626    69.4650   5   6   4.4153   2.7070   8.3862   1.8095  -0.9566   2.5357   0.00    0.0
2005/04/02 00:26:30.000   35 09 39.14058  139 36 49.80810    70.2322   5   6   4.4392   2.7097   8.4025   1.8197  -0.8757   2.5828   0.00    0.0
2005/04/02 00:27:00.000   35 09 39.15057  139 36 49.80877    69.5024   5   6   4.4633   2.7125   8.4189   1.8302  -0.7859   2.6295   0.00    0.0
2005/04/02 00:27:30.000   35 09 39.14974  139 36 49.81312    69.9664   5   6   4.4876   2.7154   8.4354   1.8408  -0.6840   2.6758   0.00    0.0
2005/04/02 00:28:00.000   35 09 39.14734  139 36 49.81792    70.4610   5   6   4.5121   2.7185   8.4521   1.8515  -0.5633   2.7217   0.00    0.0
2005/04/02 00:28:30.000   35 09 39.14458  139 36 49.80132    70.1232   5   6   4.5368   2.7216   8.4689   1.8624  -0.4074   2.7671   0.00    0.0
2005/04/02 00:29:00.000   35 09 39.14760  139 36 49.80957    70.2313   5   6   4.5617   2.7249   8.4859   1.8734  -0.1181   2.8122   0.00    0.0
2005/04/02 00:29:30.000   35 09 39.14503  139 36 49.80893    68.3598   5   6   4.5868   2.7284   8.5030   1.8846   0.3725   2.8568   0.00    0.0
2005/04/02 00:30:00.000   35 09 39.14614  139 36 49.80654    69.7329   5   6   4.6121   2.7319   8.5202   1.8958   0.5405   2.9011   0.00    0.0
2005/04/02 00:30:30.000   35 09 39.14900  139 36 49.82197    70.5585   5   6   4.6375   2.7356   8.5376   1.9073   0.6680   2.9450   0.00    0.0
2005/04/02 00:31:00.000   35 09 39.14698  139 36 49.81177    70.0028   5   6   4.6631   2.7394   8.5551   1.9188   0.7752   2.9884   0.00    0.0
2005/04/02 00:31:30.000   35 09 39.14494  139 36 49.81644    70.1449   5   6   4.6888   2.7433   8.5727   1.9304   0.8696   3.0315   0.00    0.0
2005/04/02 00:32:00.000   35 09 39.14681  139 36 49.81398    70.4862   5   6   4.7147   2.7473   8.5905   1.9421   0.9550   3.0741   0.00    0.0
2005/04/02 00:32:30.000   35 09 39.13760  139 36 49.80381    69.9083   5   6   4.7407   2.7514   8.6083   1.9540   1.0336   3.1164   0.00    0.0
2005/04/02 00:33:00.000   35 09 39.14519  139 36 49.81530    70.0067   5   6   4.7668   2.7557   8.6263   1.9659   1.1069   3.1582   0.00    0.0
2005/04/02 00:33:30.000   35 09 39.14573  139 36 49.81240    69.4883   5   6   4.7929   2.7601   8.6443   1.9778   1.1758   3.1996   0.00    0.0
2005/04/02 00:34:00.000   35 09 39.14970  139 36 49.81965    70.7277   5   6   4.8192   2.7645   8.6625   1.9898   1.2411   3.2405   0.00    0.0
2005/04/02 00:34:30.000   35 09 39.15181  139 36 49.81215    69.5335   5   6   4.8456   2.7691   8.6807   2.0019   1.3033   3.2810   0.00    0.0
2005/04/02 00:35:00.000   35 09 39.15035  139 36 49.81287    70.5277   5   6   4.8719   2.7738   8.6990   2.0140   1.3628   3.3210   0.00    0.0
2005/04/02 00:35:30.000   35 09 39.14706  139 36 49.81453    70.1186   5   6   4.8984   2.7786   8.7173   2.0262   1.4199   3.3605   0.00    0.0
2005/04/02 00:36:00.000   35 09 39.15008  139 36 49.82754    70.2337   5   6   4.9248   2.7835   8.7358   2.0383   1.4748   3.3996   0.00    0.0
2005/04/02 00:36:30.000   35 09 39.15440  139 36 49.81392    69.4928   5   6   4.9513   2.7885   8.7542   2.0504   1.5279   3.4381   0.00    0.0
2005/04/02 00:37:00.000   35 09 39.14055  139 36 49.81490    69.6188   5   6   4.9777   2.7936   8.7727   2.0626   1.5792   3.4761   0.00    0.0
2005/04/02 00:37:30.000   35 09 39.15198  139 36 49.82531    70.4707   5   6   5.0042   2.7988   8.7913   2.0747   1.6290   3.5135   0.00    0.0
2005/04/02 00:38:00.000   35 09 39.13988  139 36 49.81131    70.0450   5   6   5.0305   2.8041   8.8098   2.0868   1.6773   3.5504   0.00    0.0
2005/04/02 00:38:30.000   35 09 39.14900  139 36 49.82350    70.2685   5   6   5.0568   2.8094   8.8283   2.0988   1.7242   3.5867   0.00    0.0
2005/04/02 00:39:00.000   35 09 39.14160  139 36 49.81737    69.4239   5   6   5.0830   2.8149   8.8468   2.1107   1.7699   3.6223   0.00    0.0
2005/04/02 00:39:30.000   35 09 39.15006  139 36 49.82304    70.2520   5   6   5.1091   2.8204   8.8653   2.1226   1.8143   3.6573   0.00    0.0
2005/04/02 00:40:00.000   35 09 39.15529  139 36 49.82104    70.1186   5   6   5.1351   2.8260   8.8837   2.1344   1.8577   3.6917   0.00    0.0
2005/04/02 00:40:30.000   35 09 39.15809  139 36 49.82122    70.0624   5   6   5.1609   2.8317   8.9021   2.1460   1.9000   3.7254   0.00    0.0
2005/04/02 00:41:00.000   35 09 39.14489  139 36 49.81872    69.6374   5   6   5.1865   2.8375   8.9204   2.1575   1.9413   3.7583   0.00    0.0
2005/04/02 00:41:30.000   35 09 39.13611  139 36 49.80845    69.4326   5   6   5.2119   2.8433   8.9386   2.1689   1.9816   3.7906   0.00    0.0
2005/04/02 00:42:00.000   35 09 39.13879  139 36 49.81338    69.8755   5   6   5.2371   2.8492   8.9567   2.1801   2.0210   3.8220   0.00    0.0
2005/04/02 00:42:30.000   35 09 39.14153  139 36 49.81547    69.2489   5   6   5.2621   2.8551   8.9747   2.1911   2.0595   3.8527   0.00    0.0
2005/04/02 00:43:00.000   35 09 39.13794  139 36 49.81634    69.4045   5   6   5.2868   2.8611   8.9925   2.2020   2.0971   3.8826   0.00    0.0
2005/04/02 00:43:30.000   35 09 39.14480  139 36 49.83235    69.2576   5   6   5.3112   2.8671   9.0102   2.2126   2.1339   3.9116   0.00    0.0
2005/04/02 00:44:00.000   35 09 39.13159  139 36 49.83054    69.7684   5   6   5.3352   2.8732   9.0277   2.2230   2.1699   3.9397   0.00    0.0
2005/04/02 00:44:30.000   35 09 39.13613  139 36 49.82188    69.8625   5   6   5.3590   2.8793   9.0450   2.2331   2.2051   3.9669   0.00    0.0
2005/04/02 00:45:00.000   35 09 39.13910  139 36 49.83215    69.4155   5   6   5.3823   2.8855   9.0621   2.2429   2.2395   3.9932   0.00    0.0
2005/04/02 00:45:30.000   35 09 39.15296  139 36 49.82145    69.3296   5   6   5.4053   2.8917   9.0789   2.2525   2.2731   4.0185   0.00    0.0
2005/04/02 00:46:00.000   35 09 39.15291  139 36 49.82751    69.7684   5   6   5.4278   2.8980   9.0955   2.2617   2.3060   4.0428   0.00    0.0
2005/04/02 00:46:30.000   35 09 39.14959  139 36 49.82009    69.2308   5   6   5.4499   2.9042   9.1119   2.2706   2.3381   4.0660   0.00    0.0
2005/04/02 00:47:00.000   35 09 39.14104  139 36 49.82526    68.7607   5   6   5.4715   2.9105   9.1280   2.2792   2.3696   4.0882   0.00    0.0
2005/04/02 00:47:30.000   35 09 39.13545  139 36 49.81630    69.7182   5   6   5.4926   2.9168   9.1437   2.2874   2.4003   4.1093   0.00    0.0
2005/04/02 00:48:00.000   35 09 39.14074  139 36 49.82508    68.8841   5   6   5.5132   2.9231   9.1592   2.2952   2.4303   4.1293   0.00    0.0
2005/04/02 00:48:30.000   35 09 39.15714  139 36 49.82506    69.8390   5   6   5.5332   2.9294   9.1743   2.3026   2.4596   4.1481   0.00    0.0
2005/04/02 00:49:00.000   35 09 39.14545  139 36 49.81834    69.2425   5   6   5.5527   2.9357   9.1891   2.3095   2.4882   4.1657   0.00    0.0
2005/04/02 00:49:30.000   35 09 39.14643  139 36 49.82317    69.6568   5   6   5.5716   2.9420   9.2036   2.3161   2.5161   4.1821   0.00    0.0
2005/04/02 00:50:00.000   35 09 39.13398  139 36 49.81597    69.2189   5   6   5.5898   2.9484   9.2177   2.3221   2.5434   4.1972   0.00    0.0
2005/04/02 00:50:30.000   35 09 39.13039  139 36 49.82000    69.4702   5   6   5.6074   2.9547   9.2313   2.3277   2.5700   4.2110   0.00    0.0
2005/04/02 00:51:00.000   35 09 39.13083  139 36 49.81348    69.1476   5   6   5.6244   2.9610   9.2446   2.3328   2.5959   4.2235   0.00    0.0
2005/04/02 00:51:30.000   35 09 39.14868  139 36 49.82367    69.0869   5   6   5.6407   2.9672   9.2575   2.3374   2.6212   4.2347   0.00    0.0
2005/04/02 00:52:00.000   35 09 39.14355  139 36 49.81331    68.8513   5   6   5.6563   2.9735   9.2700   2.3414   2.6458   4.2445   0.00    0.0
2005/04/02 00:52:30.000   35 09 39.15063  139 36 49.83299    68.9355   5   6   5.6712   2.9797   9.2821   2.3449   2.6698   4.2529   0.00    0.0
2005/04/02 00:53:00.000   35 09 39.14084  139 36 49.81578    68.4884   5   6   5.6853   2.9860   9.2937   2.3478   2.6931   4.2599   0.00    0.0
2005/04/02 00:53:30.000   35 09 39.14236  139 36 49.82643    68.4287   5   6   5.6987   2.9922   9.3049   2.3501   2.7159   4.2655   0.00    0.0
2005/04/02 00:54:00.000   35 09 39.13977  139 36 49.82251    69.1101   5   6   5.7114   2.9983   9.3157   2.3518   2.7380   4.2695   0.00    0.0
2005/04/02 00:54:30.000   35 09 39.13991  139 36 49.81476    68.7221   5   6   5.7233   3.0045   9.3260   2.3530   2.7595   4.2721   0.00    0.0
2005/04/02 00:55:00.000   35 09 39.13632  139 36 49.82767    69.3969   5   6   5.7344   3.0106   9.3358   2.3534   2.7804   4.2731   0.00    0.0
2005/04/02 00:55:30.000   35 09 39.13223  139 36 49.81675    68.7602   5   6   5.7447   3.0167   9.3453   2.3533   2.8007   4.2726   0.00    0.0
2005/04/02 00:56:00.000   35 09 39.12939  139 36 49.81916    68.1266   5   6   5.7542   3.0227   9.3543   2.3525   2.8204   4.2706   0.00    0.0
2005/04/02 00:56:30.000   35 09 39.11453  139 36 49.81244    68.5483   5   6   5.7629   3.0287   9.3628   2.3510   2.8396   4.2669   0.00    0.0
2005/04/02 00:57:00.000   35 09 39.32175  139 36 49.77120    84.1439   5   5  29.1837   6.1403  74.3229 -12.1322 -19.6316  46.1236   0.00    0.0
