% program   : rnx2rtkp ver.EX 2.5.0
% inp file  : ../rinex/07590920.05o
% inp file  : ../rinex/30400920.05n
% inp file  : ../rinex/30400920.05o
% obs start : 2005/04/02 00:00:00.0 GPST (week1316 518400.0s)
% obs end   : 2005/04/02 00:59:30.0 GPST (week1316 521970.0s)
% ref pos   :  -3978241.9580   3382840.2340   3649900.8530
%
% (x/y/z-ecef=WGS84,Q=1:fix,2:float,3:sbas,4:dgps,5:single,6:ppp,ns=# of satellites)
%  GPST                      x-ecef(m)      y-ecef(m)      z-ecef(m)   Q  ns   sdx(m)   sdy(m)   sdz(m)  sdxy(m)  sdyz(m)  sdzx(m) age(s)  ratio
2005/04/02 00:00:00.000  -3976219.4905   3382372.2425   3652511.5097   2   7   2.4253   2.7120   2.0618  -2.3042   1.8475  -1.7252   0.00    0.0
2005/04/02 00:00:30.000  -3976219.0860   3382371.7370   3652511.2430   2   7   1.2198   1.2038   1.0327  -0.8918   0.6921  -0.6856   0.00    0.0
2005/04/02 00:01:00.000  -3976219.1823   3382371.5997   3652511.1334   1   7  36.5508   0.0000  54.8471 -66.6069 123.5518  48.6831   0.00   24.7
2005/04/02 00:01:30.000  -3976219.1811   3382371.6947   3652511.1391   2   7   0.6888   0.0000   0.9114  -0.6655   0.5022   0.4287   0.00    0.0
2005/04/02 00:02:00.000  -3976219.1448   3382371.7045   3652511.0881   2   7   0.5537   0.0000   0.3197 -58.2409  43.7894  -0.1799   0.00    2.3
2005/04/02 00:02:30.000  -3976219.0525   3382371.7047   3652511.0367   2   7   0.7418   1.1982   0.8203   0.6967  -0.7293   0.2700   0.00    0.0
2005/04/02 00:03:00.000  -3976218.9954   3382371.9650   3652510.3795   2   7   0.4045   0.0000   0.1942  16.3586 -70.3511  -0.1247   0.00    1.3
2005/04/02 00:04:00.000  -3976219.5337   3382372.1292   3652511.5225   2   7   2.3036   2.6155   1.9262  -2.1920   1.7116  -1.5542   0.00    0.0
2005/04/02 00:04:30.000  -3976218.8821   3382371.1785   3652511.2877   2   7   1.2085   1.2062   1.0308  -0.9006   0.7252  -0.6946   0.00    0.0
2005/04/02 00:05:00.000  -3976219.0376   3382371.4711   3652511.0681   2   7   0.0000  27.9615 112.5390 -29.0320  83.0791 -77.3604   0.00    0.0
2005/04/02 00:05:30.000  -3976218.9715   3382371.4693   3652510.7710   2   7   0.6641   0.4720   0.4443  -0.1288   0.3209  -0.3008   0.00    0.0
2005/04/02 00:06:00.000  -3976218.8679   3382371.4925   3652510.7124   2   7   0.7048   0.1587   0.0000  -0.2058 -304.9746 691.7495   0.00    1.3
2005/04/02 00:06:30.000  -3976218.9559   3382371.5896   3652510.7115   2   7   0.0000   0.4608   1.7446   0.4616   0.8219   2.9361   0.00    0.0
2005/04/02 00:07:00.000  -3976218.9823   3382371.5735   3652510.7123   2   7   0.5116   0.2302   0.1252   0.1967   0.0958   0.2440   0.00    1.2
2005/04/02 00:07:30.000  -3976218.9954   3382371.5827   3652510.7139   2   7   0.1702   0.0000   0.0000  -0.6398   0.9838   0.2609   0.00    1.2
2005/04/02 00:08:00.000  -3976218.9719   3382371.5604   3652510.7125   2   7   0.3749   0.0000   0.1258  -0.0819   0.1762   0.0964   0.00    1.0
2005/04/02 00:08:30.000  -3976219.0042   3382371.5387   3652510.7105   2   7   0.3605   0.1913   0.0000   0.2116  -0.0182  -0.0357   0.00    1.1
2005/04/02 00:09:00.000  -3976219.0051   3382371.5407   3652510.7100   2   7   0.3380   0.1443   0.0000   0.1742  -0.0520  -0.0626   0.00    1.2
2005/04/02 00:09:30.000  -3976219.0000   3382371.5736   3652510.7006   2   7   0.3402   0.1958   0.0000   0.2150  -0.0466  -0.0392   0.00    1.4
2005/04/02 00:10:00.000  -3976219.0194   3382371.6131   3652510.7133   2   7   0.3103   0.1030   0.0000   0.1744   0.0811   0.0634   0.00    1.1
2005/04/02 00:10:30.000  -3976219.0302   3382371.5792   3652510.7122   2   7   0.2972   0.0847   0.0000   0.1764   0.1051   0.0709   0.00    1.0
2005/04/02 00:11:00.000  -3976219.0305   3382371.5707   3652510.7141   2   7   0.2676   0.1006   0.0000   0.1599   0.0549  -0.0626   0.00    1.0
2005/04/02 00:11:30.000  -3976219.0134   3382371.5702   3652510.7161   2   7   0.2720   0.1335   0.0000   0.1588  -0.0626  -0.0690   0.00    1.1
2005/04/02 00:12:00.000  -3976218.9970   3382371.5687   3652510.7224   2   7   0.2469   0.0884   0.0946   0.1525   0.0638   0.0806   0.00    1.0
2005/04/02 00:12:30.000  -3976218.9730   3382371.5717   3652510.7206   2   7   0.2459   0.1474   0.0000   0.1750   0.0032  -0.0500   0.00    1.0
2005/04/02 00:13:00.000  -3976218.9208   3382371.6071   3652510.7291   2   7   0.2318   0.0000   0.0000   0.1353   0.1191  -0.0605   0.00    1.4
2005/04/02 00:13:30.000  -3976218.8737   3382371.6123   3652510.7304   2   7   0.2474   0.0767   0.0658   0.1448   0.0743   0.0371   0.00    1.1
2005/04/02 00:14:00.000  -3976218.8608   3382371.6160   3652510.7372   2   7   0.2088   0.1190   0.0748   0.1110  -0.1039   0.0720   0.00    1.1
2005/04/02 00:14:30.000  -3976218.8252   3382371.6101   3652510.7359   2   7   0.1846   0.1528   0.0802   0.1500  -0.0870  -0.0604   0.00    1.2
2005/04/02 00:15:00.000  -3976218.7718   3382371.6234   3652510.7372   2   7   0.2071   0.0932   0.0000   0.1660   0.1103   0.0430   0.00    1.0
2005/04/02 00:15:30.000  -3976218.7308   3382371.6274   3652510.7397   2   7   0.1888   0.0282   0.0283   0.0981   0.0260   0.0701   0.00    1.0
2005/04/02 00:16:00.000  -3976218.6543   3382371.6520   3652510.7426   2   7   0.1870   0.0725   0.0953   0.1194   0.0446   0.0912   0.00    1.0
2005/04/02 00:16:30.000  -3976218.6201   3382371.6737   3652510.7497   2   7   0.1712   0.0000   0.0000   0.0760   0.0897   0.0485   0.00    1.2
2005/04/02 00:17:00.000  -3976218.5687   3382371.7013   3652510.7568   2   7   0.1821   0.1426   0.0000   0.1305  -0.0888  -0.0712   0.00    1.3
2005/04/02 00:17:30.000  -3976218.5356   3382371.7192   3652510.7587   2   7   0.1688   0.0474   0.0921   0.0822  -0.0427   0.0693   0.00    1.1
2005/04/02 00:18:00.000  -3976218.5745   3382371.6773   3652510.7439   2   6   0.1474   0.0228   0.0000   0.0897   0.0394   0.0171   0.00    1.6
2005/04/02 00:18:30.000  -3976218.6226   3382371.6432   3652510.7355   2   6   0.1760   0.0226   0.0757   0.0707  -0.0386   0.0572   0.00    1.1
2005/04/02 00:19:00.000  -3976218.6780   3382371.6232   3652510.7398   2   6   0.1642   0.0974   0.0000   0.1393   0.0778  -0.0645   0.00    1.3
2005/04/02 00:19:30.000  -3976218.7186   3382371.5972   3652510.7324   2   6   0.1483   0.0583   0.0506   0.1012   0.0437   0.0217   0.00    1.2
2005/04/02 00:20:00.000  -3976218.7714   3382371.5750   3652510.7336   2   6   0.1616   0.1123   0.0000   0.1302   0.0294   0.0524   0.00    1.6
2005/04/02 00:20:30.000  -3976218.8036   3382371.5464   3652510.7281   2   6   0.1333   0.0000   0.0000   0.0412   0.0368  -0.0370   0.00    1.2
2005/04/02 00:20:59.999  -3976218.8351   3382371.5200   3652510.7292   2   6   0.1617   0.1091   0.0054   0.0977  -0.0780   0.0594   0.00    1.1
2005/04/02 00:21:30.000  -3976218.8832   3382371.5004   3652510.7279   2   6   0.1803   0.1195   0.0000   0.1425   0.0591   0.0336   0.00    1.2
2005/04/02 00:22:00.000  -3976218.9374   3382371.4813   3652510.7292   2   6   0.1564   0.0873   0.0000   0.1010  -0.0330   0.0288   0.00    1.0
2005/04/02 00:22:30.000  -3976218.9722   3382371.4556   3652510.7201   2   6   0.1566   0.0749   0.0733   0.0172  -0.0993   0.0535   0.00    1.2
2005/04/02 00:23:00.000  -3976219.0109   3382371.4309   3652510.7196   2   6   0.1429   0.1010   0.0000   0.0963  -0.0652  -0.0531   0.00    1.1
2005/04/02 00:23:30.000  -3976219.0554   3382371.4145   3652510.7186   2   6   0.1444   0.0000   0.0000   0.1058   0.1109  -0.0140   0.00    1.2
2005/04/02 00:24:00.000  -3976219.0834   3382371.3822   3652510.7108   2   6   0.1366   0.0455   0.0389   0.0728  -0.0268   0.0358   0.00    1.3
2005/04/02 00:24:30.000  -3976219.1256   3382371.3724   3652510.7149   2   6   0.1109   0.0754   0.0634   0.0798  -0.0531  -0.0450   0.00    1.2
2005/04/02 00:25:00.000  -3976219.1538   3382371.3633   3652510.7127   2   6   0.1654   0.0609   0.0000   0.1145   0.0799  -0.0578   0.00    1.3
2005/04/02 00:25:30.000  -3976219.1879   3382371.3489   3652510.7103   2   6   0.1480   0.0778   0.0501   0.0907  -0.0306   0.0371   0.00    1.1
2005/04/02 00:26:00.000  -3976219.2084   3382371.3309   3652510.7065   2   6   0.1271   0.0278   0.0823   0.0709   0.0247   0.0798   0.00    1.3
2005/04/02 00:26:30.000  -3976219.2356   3382371.3175   3652510.7058   2   6   0.0942   0.0479   0.0443   0.0647  -0.0400   0.0188   0.00    1.0
2005/04/02 00:27:00.000  -3976219.2593   3382371.3099   3652510.7075   2   6   0.1627   0.0441   0.0962   0.0855   0.0461   0.0642   0.00    1.0
2005/04/02 00:27:30.000  -3976219.2643   3382371.3099   3652510.7110   2   6   0.1148   0.1387   0.0557   0.1202  -0.0773   0.0556   0.00    1.0
2005/04/02 00:28:00.000  -3976219.2622   3382371.3002   3652510.7082   2   6   0.1429   0.0638   0.0110   0.1053   0.0668   0.0780   0.00    1.1
2005/04/02 00:28:30.000  -3976219.2623   3382371.2993   3652510.7082   2   6   0.1600   0.0849   0.0224   0.0908  -0.0377   0.0346   0.00    1.1
2005/04/02 00:29:00.000  -3976219.2584   3382371.2936   3652510.7076   2   6   0.1510   0.0627   0.0000   0.0878   0.0337  -0.0374   0.00    1.5
2005/04/02 00:29:30.000  -3976219.2449   3382371.3010   3652510.7126   2   6   0.1318   0.0000   0.0000   0.0807   0.1007  -0.0756   0.00    1.2
2005/04/02 00:30:00.000  -3976219.2327   3382371.3013   3652510.7184   2   6   0.1394   0.0000   0.0396   0.0966   0.0880   0.0447   0.00    1.2
2005/04/02 00:30:30.000  -3976219.2123   3382371.3052   3652510.7146   2   6   0.1070   0.0639   0.0000   0.1047   0.0687  -0.1004   0.00    1.3
2005/04/02 00:31:00.000  -3976219.2015   3382371.3165   3652510.7231   2   6   0.0000   0.0000   0.0000   0.0317   0.0515  -0.1168   0.00    1.0
2005/04/02 00:31:30.002  -3976219.1756   3382371.3229   3652510.7234   2   6   0.1443   0.0653   0.0714   0.0892   0.0387   0.0816   0.00    1.3
2005/04/02 00:32:00.000  -3976219.1528   3382371.3197   3652510.7265   2   6   0.0957   0.0548   0.0709   0.0739  -0.0006   0.0815   0.00    1.1
2005/04/02 00:32:30.000  -3976219.1305   3382371.3452   3652510.7388   2   6   0.0481   0.0695   0.0000   0.0325  -0.0798  -0.0581   0.00    1.4
2005/04/02 00:33:00.000  -3976219.1047   3382371.3649   3652510.7451   2   6   0.1298   0.0521   0.0000   0.1192   0.0991   0.0777   0.00    2.2
2005/04/02 00:33:30.000  -3976219.0676   3382371.3791   3652510.7606   2   6   0.1538   0.0000   0.0000   0.1134   0.1078   0.0754   0.00    2.2
2005/04/02 00:34:00.000  -3976219.0267   3382371.4060   3652510.7745   2   6   0.1267   0.0486   0.1244   0.0411  -0.0562   0.1030   0.00    2.2
2005/04/02 00:34:30.000  -3976218.9707   3382371.4220   3652510.7800   2   6   0.1001   0.0489   0.0000   0.1088   0.0888  -0.0836   0.00    2.1
2005/04/02 00:35:00.000  -3976218.9215   3382371.4510   3652510.7960   2   6   0.0721   0.0000   0.0000  -0.0370   0.0373   0.0196   0.00    2.0
2005/04/02 00:35:30.000  -3976218.8644   3382371.4670   3652510.7944   2   6   0.1416   0.0658   0.0144   0.0808   0.0219  -0.0013   0.00    1.9
2005/04/02 00:36:00.000  -3976218.8270   3382371.4968   3652510.8212   2   6   0.0988   0.0267   0.0000   0.0411  -0.0362  -0.0787   0.00    1.8
2005/04/02 00:36:30.000  -3976218.7625   3382371.5185   3652510.8230   2   6   0.1275   0.0300   0.0000   0.0900   0.0742  -0.0479   0.01    1.7
2005/04/02 00:37:00.000  -3976218.7010   3382371.5571   3652510.8447   2   6   0.0564   0.0753   0.0000   0.0682  -0.0503  -0.0380   0.01    1.6
2005/04/02 00:37:30.000  -3976218.6370   3382371.5839   3652510.8531   2   6   0.1358   0.0000   0.0491   0.0555   0.0525   0.0886   0.01    1.5
2005/04/02 00:38:00.000  -3976218.5772   3382371.6119   3652510.8682   2   6   0.1338   0.0844   0.0613   0.0326  -0.0869   0.0817   0.01    2.1
2005/04/02 00:38:30.000  -3976218.5174   3382371.6411   3652510.8843   2   6   0.0793   0.0514   0.0000   0.0582  -0.0295  -0.0487   0.01    1.1
2005/04/02 00:39:00.000  -3976218.4419   3382371.6768   3652510.8998   2   6   0.1601   0.0748   0.0681   0.0703  -0.0420   0.0896   0.01    2.3
2005/04/02 00:39:30.000  -3976218.3772   3382371.7074   3652510.9153   2   6   0.1552   0.0684   0.1051  -0.0259  -0.0833   0.1112   0.01    1.5
2005/04/02 00:40:00.000  -3976218.3030   3382371.7375   3652510.9394   2   6   0.1238   0.0748   0.0593   0.1042   0.0687   0.0903   0.01    2.4
2005/04/02 00:40:30.000  -3976218.2457   3382371.7670   3652510.9610   2   6   0.1409   0.1077   0.0713   0.0864  -0.0660   0.0424   0.01    1.3
2005/04/02 00:41:00.000  -3976218.1850   3382371.7891   3652510.9646   2   6   0.1066   0.0000   0.0103   0.0980   0.0953   0.0462   0.01    2.5
2005/04/02 00:41:30.000  -3976218.1368   3382371.8130   3652510.9820   2   6   0.1453   0.0845   0.0959   0.0418  -0.0792   0.0764   0.01    1.8
2005/04/02 00:42:00.000  -3976218.0968   3382371.8434   3652510.9976   2   6   0.0000   0.0510   0.0000  -0.0400  -0.0749  -0.0615   0.01    2.6
2005/04/02 00:42:30.003  -3976218.0459   3382371.8628   3652511.0088   2   6   0.0000   0.0201   0.0000  -0.0081  -0.0422  -0.1026   0.01    2.1
2005/04/02 00:43:00.003  -3976217.9890   3382371.8879   3652511.0225   2   6   0.0723   0.0195   0.0000   0.0791   0.0710  -0.0245   0.01    2.8
2005/04/02 00:43:30.000  -3976217.9531   3382371.9058   3652511.0310   2   6   0.1066   0.0000   0.0000  -0.0037   0.0122   0.0479   0.01    1.6
2005/04/02 00:44:00.000  -3976217.9188   3382371.9180   3652511.0486   2   6   0.1540   0.0439   0.0000   0.1039   0.0932   0.0870   0.01    2.9
2005/04/02 00:44:30.000  -3976217.8930   3382371.9375   3652511.0700   2   6   0.0998   0.0000   0.0000  -0.0135  -0.0329  -0.0805   0.01    1.4
2005/04/02 00:45:00.000  -3976217.8649   3382371.9418   3652511.0766   2   6   0.0647   0.0000   0.0000  -0.0219   0.0310  -0.0347   0.01    3.1
2005/04/02 00:45:30.000  -3976217.8322   3382371.9493   3652511.0810   2   6   0.1391   0.0722   0.1304   0.0579  -0.0466   0.1325   0.01    1.1
2005/04/02 00:46:00.000  -3976217.8058   3382371.9612   3652511.0948   2   6   0.0249   0.1038   0.0582   0.0598  -0.0833   0.0414   0.01    3.2
2005/04/02 00:46:30.000  -3976217.7772   3382371.9688   3652511.1039   2   6   0.0833   0.0000   0.0945  -0.0240   0.0300   0.0697   0.01    1.7
2005/04/02 00:47:00.000  -3976217.7505   3382371.9818   3652511.1116   2   6   0.0970   0.0256   0.0310   0.0831   0.0774   0.0433   0.01    3.3
2005/04/02 00:47:30.000  -3976217.7529   3382371.9917   3652511.1239   2   6   0.0278   0.0705   0.0000   0.0193  -0.0703  -0.0079   0.01    2.6
2005/04/02 00:48:00.000  -3976217.7468   3382371.9994   3652511.1306   2   6   0.1552   0.0492   0.0946   0.0395  -0.0357   0.1049   0.01    3.3
2005/04/02 00:48:30.000  -3976217.7425   3382371.9940   3652511.1257   2   6   0.0207   0.0000   0.0690  -0.0295  -0.0387   0.0298   0.01    2.4
2005/04/02 00:49:00.000  -3976217.7549   3382371.9930   3652511.1437   2   6   0.1378   0.0661   0.0742   0.0739   0.0351   0.0957   0.01    3.4
2005/04/02 00:49:30.000  -3976217.7436   3382371.9969   3652511.1411   2   6   0.1104   0.0745   0.0460   0.0834   0.0424   0.0702   0.01    2.3
2005/04/02 00:50:00.000  -3976217.7411   3382371.9961   3652511.1475   2   6   0.1283   0.0692   0.0777   0.1013   0.0779   0.0667   0.01    3.5
2005/04/02 00:50:30.000  -3976217.7351   3382371.9983   3652511.1494   2   6   0.1315   0.0611   0.0731   0.0547  -0.0266   0.1079   0.01    2.4
2005/04/02 00:51:00.000  -3976217.7446   3382372.0003   3652511.1598   2   6   0.0366   0.0551   0.0000   0.1018   0.0887  -0.0584   0.01    3.7
2005/04/02 00:51:30.000  -3976217.7461   3382371.9993   3652511.1545   2   6   0.0000   0.0941   0.0000   0.0706  -0.0563  -0.0870   0.01    1.7
2005/04/02 00:52:00.004  -3976217.7441   3382371.9973   3652511.1600   2   6   0.0845   0.0492   0.0000   0.0230  -0.0454   0.0604   0.01    3.8
2005/04/02 00:52:30.000  -3976217.7389   3382371.9950   3652511.1548   2   6   0.0000   0.0000   0.0000  -0.0838  -0.0673  -0.1007   0.01    2.1
2005/04/02 00:53:00.004  -3976217.7446   3382371.9931   3652511.1665   2   6   0.1185   0.0000   0.0000  -0.0560  -0.0122   0.0606   0.01    3.9
2005/04/02 00:53:30.000  -3976217.7511   3382371.9920   3652511.1743   2   6   0.0000   0.0000   0.0000  -0.0755  -0.0705  -0.0831   0.01    3.8
2005/04/02 00:54:00.004  -3976217.7618   3382371.9921   3652511.1844   2   6   0.0197   0.0000   0.0909  -0.0805  -0.0789   0.1073   0.01    3.9
2005/04/02 00:54:30.000  -3976217.7650   3382371.9904   3652511.1877   2   6   0.1640   0.0000   0.0696  -0.0321  -0.0105   0.0914   0.01    2.7
2005/04/02 00:55:00.000  -3976217.7751   3382371.9788   3652511.1858   2   6   0.1100   0.0630   0.0000   0.0930   0.0736   0.0367   0.01    4.0
2005/04/02 00:55:30.000  -3976217.7997   3382371.9771   3652511.1981   2   6   0.0784   0.0000   0.0613   0.0700   0.0796   0.0687   0.01    2.4
2005/04/02 00:56:00.000  -3976217.8158   3382371.9765   3652511.1914   2   6   0.0982   0.0270   0.0568   0.0273  -0.0088   0.0779   0.01    4.1
2005/04/02 00:56:30.000  -3976217.8143   3382371.9622   3652511.1848   2   6   0.0944   0.0876   0.1311   0.0888   0.0356   0.1062   0.01    3.4
2005/04/02 00:57:00.000  -3976217.8756   3382372.0111   3652511.2901   2   5   0.0823   0.0860   0.1133   0.0471   0.0685   0.0316   0.01    2.8
2005/04/02 00:57:30.000  -3976217.8992   3382372.0026   3652511.3071   2   5   0.1084   0.0546   0.0973  -0.0948  -0.0383  -0.0841   0.01    2.8
2005/04/02 00:58:00.000  -3976217.8895   3382371.9788   3652511.2741   2   5   0.1177   0.1002   0.1433   0.0905   0.1133   0.0311   0.01    2.8
2005/04/02 00:58:30.000  -3976217.9264   3382371.9909   3652511.3014   2   5   0.0872   0.0534   0.1487  -0.0779   0.0842  -0.0325   0.01    2.9
2005/04/02 00:59:00.000  -3976217.9209   3382371.9468   3652511.2358   2   5   0.0000   0.0864   0.1415  -0.0512   0.1016  -0.1152   0.01    2.9
2005/04/02 00:59:30.005  -3976217.9041   3382371.8960   3652511.1556   2   5   0.0000   0.0214   0.1542  -0.0977   0.1178  -0.1412   0.01    2.9
