% program   : rnx2rtkp ver.EX 2.5.0
% inp file  : ../rinex/07590920.05o
% inp file  : ../rinex/30400920.05n
% inp file  : ../rinex/30400920.05o
% obs start : 2005/04/02 00:00:00.0 GPST (week1316 518400.0s)
% obs end   : 2005/04/02 00:59:30.0 GPST (week1316 521970.0s)
% ref pos   :  -3978241.9580   3382840.2340   3649900.8530
%
% (x/y/z-ecef=WGS84,Q=1:fix,2:float,3:sbas,4:dgps,5:single,6:ppp,ns=# of satellites)
%  GPST                      x-ecef(m)      y-ecef(m)      z-ecef(m)   Q  ns   sdx(m)   sdy(m)   sdz(m)  sdxy(m)  sdyz(m)  sdzx(m) age(s)  ratio
2005/04/02 00:00:00.000  -3976219.5803   3382372.3106   3652511.5114   4   7   2.7039   2.9772   2.2139  -2.5556   2.0123  -1.9031   0.00    0.0
2005/04/02 00:00:30.000  -3976218.9336   3382371.5787   3652511.4054   4   7   2.7226   2.9962   2.2307  -2.5765   2.0315  -1.9234   0.00    0.0
2005/04/02 00:01:00.000  -3976219.3804   3382371.8807   3652511.5697   4   7   2.7716   3.0131   2.2889  -2.5528   2.0124  -1.9349   0.00    0.0
2005/04/02 00:01:30.000  -3976219.6422   3382371.9720   3652511.4385   4   7   2.7077   2.9746   2.2330  -2.5573   2.0185  -1.9156   0.00    0.0
2005/04/02 00:02:00.000  -3976218.9140   3382371.4035   3652510.6916   4   7   2.7034   2.9672   2.2364  -2.5513   2.0153  -1.9149   0.00    0.0
2005/04/02 00:02:30.000  -3976219.4816   3382372.3175   3652511.8543   4   7   2.6991   2.9597   2.2398  -2.5452   2.0120  -1.9142   0.00    0.0
2005/04/02 00:03:00.000  -3976219.4428   3382371.9613   3652511.3836   4   7   2.6947   2.9521   2.2433  -2.5389   2.0086  -1.9135   0.00    0.0
2005/04/02 00:03:30.000  -3976219.4898   3382372.1243   3652511.0811   4   7   2.6902   2.9442   2.2469  -2.5325   2.0051  -1.9126   0.00    0.0
2005/04/02 00:04:00.000  -3976219.5380   3382372.1221   3652511.5275   4   7   2.6857   2.9363   2.2505  -2.5260   2.0015  -1.9118   0.00    0.0
2005/04/02 00:04:30.000  -3976219.2818   3382371.5076   3652511.4022   4   7   2.6810   2.9282   2.2543  -2.5193   1.9978  -1.9108   0.00    0.0
2005/04/02 00:05:00.000  -3976219.1490   3382371.4668   3652511.6013   4   7   2.6763   2.9200   2.2580  -2.5125   1.9940  -1.9098   0.00    0.0
2005/04/02 00:05:30.000  -3976219.3010   3382371.7955   3652511.5061   4   7   2.6716   2.9116   2.2619  -2.5056   1.9902  -1.9088   0.00    0.0
2005/04/02 00:06:00.000  -3976219.1957   3382372.1163   3652511.6389   4   7   2.6667   2.9032   2.2659  -2.4986   1.9863  -1.9078   0.00    0.0
2005/04/02 00:06:30.000  -3976219.6132   3382372.0600   3652511.3928   4   7   2.6619   2.8946   2.2700  -2.4916   1.9823  -1.9067   0.00    0.0
2005/04/02 00:07:00.000  -3976219.6191   3382371.9341   3652511.2700   4   7   2.6570   2.8860   2.2742  -2.4844   1.9782  -1.9056   0.00    0.0
2005/04/02 00:07:30.000  -3976219.4412   3382371.6555   3652511.0317   4   7   2.6521   2.8773   2.2784  -2.4771   1.9741  -1.9045   0.00    0.0
2005/04/02 00:08:00.000  -3976218.6716   3382370.9301   3652511.1467   4   7   2.6471   2.8685   2.2828  -2.4698   1.9699  -1.9034   0.00    0.0
2005/04/02 00:08:30.000  -3976219.2844   3382371.5022   3652511.3946   4   7   2.6421   2.8596   2.2874  -2.4624   1.9657  -1.9023   0.00    0.0
2005/04/02 00:09:00.000  -3976219.6447   3382371.8416   3652511.6055   4   7   2.6372   2.8507   2.2920  -2.4549   1.9615  -1.9012   0.00    0.0
2005/04/02 00:09:30.000  -3976219.7330   3382372.0592   3652511.4747   4   7   2.6322   2.8418   2.2968  -2.4474   1.9573  -1.9002   0.00    0.0
2005/04/02 00:10:00.000  -3976219.6182   3382372.1973   3652511.8374   4   7   2.6272   2.8328   2.3017  -2.4399   1.9530  -1.8992   0.00    0.0
2005/04/02 00:10:30.000  -3976219.2292   3382371.5528   3652511.2604   4   7   2.6222   2.8237   2.3068  -2.4323   1.9487  -1.8982   0.00    0.0
2005/04/02 00:11:00.000  -3976218.9564   3382371.4024   3652511.1792   4   7   2.6173   2.8147   2.3120  -2.4248   1.9445  -1.8972   0.00    0.0
2005/04/02 00:11:30.000  -3976218.6183   3382371.3278   3652511.1462   4   7   2.6123   2.8056   2.3173  -2.4172   1.9402  -1.8963   0.00    0.0
2005/04/02 00:12:00.000  -3976219.3992   3382371.9784   3652511.1987   4   7   2.6074   2.7965   2.3229  -2.4095   1.9360  -1.8955   0.00    0.0
2005/04/02 00:12:30.000  -3976219.3923   3382371.5103   3652511.1837   4   7   2.6026   2.7874   2.3286  -2.4019   1.9317  -1.8947   0.00    0.0
2005/04/02 00:13:00.000  -3976219.0030   3382371.7566   3652511.4428   4   7   2.5977   2.7783   2.3344  -2.3943   1.9275  -1.8939   0.00    0.0
2005/04/02 00:13:30.000  -3976218.6998   3382371.3229   3652510.9714   4   7   2.5929   2.7692   2.3405  -2.3867   1.9233  -1.8933   0.00    0.0
2005/04/02 00:14:00.000  -3976218.9520   3382371.4124   3652510.6200   4   7   2.5882   2.7601   2.3467  -2.3791   1.9192  -1.8928   0.00    0.0
2005/04/02 00:14:30.000  -3976219.0179   3382371.7980   3652510.9575   4   7   2.5835   2.7511   2.3531  -2.3716   1.9151  -1.8923   0.00    0.0
2005/04/02 00:15:00.000  -3976219.5636   3382372.1313   3652511.4541   4   7   2.5789   2.7421   2.3597  -2.3640   1.9111  -1.8919   0.00    0.0
2005/04/02 00:15:30.000  -3976219.6419   3382372.1835   3652511.9580   4   7   2.5744   2.7331   2.3666  -2.3565   1.9071  -1.8916   0.00    0.0
2005/04/02 00:16:00.000  -3976219.4397   3382372.0586   3652511.4722   4   7   2.5699   2.7241   2.3736  -2.3491   1.9032  -1.8915   0.00    0.0
2005/04/02 00:16:30.000  -3976219.2124   3382371.2936   3652511.5374   4   7   2.5655   2.7152   2.3808  -2.3417   1.8993  -1.8914   0.00    0.0
2005/04/02 00:17:00.000  -3976219.2432   3382371.5072   3652511.4811   4   7   2.5612   2.7064   2.3883  -2.3343   1.8956  -1.8915   0.00    0.0
2005/04/02 00:17:30.000  -3976218.8992   3382371.4502   3652510.9675   4   7   2.5569   2.6976   2.3960  -2.3270   1.8919  -1.8917   0.00    0.0
2005/04/02 00:18:00.000  -3976219.5508   3382371.8177   3652511.7556   4   6   2.7681   2.7505   2.7839  -2.4498   2.0926  -2.2545   0.00    0.0
2005/04/02 00:18:30.000  -3976218.7982   3382370.7773   3652510.8756   4   6   2.7645   2.7426   2.7959  -2.4436   2.0916  -2.2573   0.00    0.0
2005/04/02 00:19:00.000  -3976218.8197   3382371.7525   3652511.3234   4   6   2.7609   2.7346   2.8080  -2.4374   2.0906  -2.2602   0.00    0.0
2005/04/02 00:19:30.000  -3976218.4357   3382371.2696   3652511.2282   4   6   2.7574   2.7267   2.8203  -2.4312   2.0897  -2.2631   0.00    0.0
2005/04/02 00:20:00.000  -3976219.2259   3382371.7390   3652511.4677   4   6   2.7539   2.7188   2.8328  -2.4250   2.0887  -2.2661   0.00    0.0
2005/04/02 00:20:30.000  -3976219.1957   3382371.7448   3652511.4307   4   6   2.7505   2.7110   2.8456  -2.4189   2.0879  -2.2692   0.00    0.0
2005/04/02 00:20:59.999  -3976218.8539   3382371.6200   3652511.2368   4   6   2.7472   2.7032   2.8586  -2.4128   2.0872  -2.2725   0.00    0.0
2005/04/02 00:21:30.000  -3976219.2329   3382371.9636   3652511.0357   4   6   2.7439   2.6955   2.8718  -2.4068   2.0865  -2.2758   0.00    0.0
2005/04/02 00:22:00.000  -3976219.0690   3382371.2220   3652511.2631   4   6   2.7408   2.6879   2.8853  -2.4009   2.0860  -2.2793   0.00    0.0
2005/04/02 00:22:30.000  -3976218.6826   3382371.4419   3652510.8890   4   6   2.7378   2.6804   2.8990  -2.3951   2.0856  -2.2829   0.00    0.0
2005/04/02 00:23:00.000  -3976218.7803   3382371.1981   3652511.4523   4   6   2.7348   2.6730   2.9130  -2.3893   2.0853  -2.2867   0.00    0.0
2005/04/02 00:23:30.000  -3976219.1419   3382371.6029   3652511.6663   4   6   2.7320   2.6656   2.9272  -2.3837   2.0850  -2.2906   0.00    0.0
2005/04/02 00:24:00.000  -3976219.6389   3382372.3498   3652511.3738   4   6   2.7292   2.6583   2.9417  -2.3781   2.0850  -2.2946   0.00    0.0
2005/04/02 00:24:30.000  -3976219.1720   3382371.6537   3652511.2173   4   6   2.7266   2.6512   2.9565  -2.3726   2.0850  -2.2988   0.00    0.0
2005/04/02 00:25:00.000  -3976219.8064   3382372.1996   3652511.6897   4   6   2.7241   2.6441   2.9716  -2.3672   2.0852  -2.3032   0.00    0.0
2005/04/02 00:25:30.000  -3976219.5670   3382372.1048   3652511.8169   4   6   2.7217   2.6371   2.9869  -2.3620   2.0855  -2.3077   0.00    0.0
2005/04/02 00:26:00.000  -3976219.2942   3382371.8738   3652511.2944   4   6   2.7195   2.6302   3.0025  -2.3568   2.0860  -2.3124   0.00    0.0
2005/04/02 00:26:30.000  -3976219.2579   3382371.6315   3652511.1993   4   6   2.7174   2.6235   3.0184  -2.3517   2.0867  -2.3172   0.00    0.0
2005/04/02 00:27:00.000  -3976218.9400   3382371.4035   3652511.2787   4   6   2.7154   2.6168   3.0346  -2.3468   2.0874  -2.3222   0.00    0.0
2005/04/02 00:27:30.000  -3976218.9090   3382371.7582   3652511.0221   4   6   2.7135   2.6103   3.0511  -2.3420   2.0884  -2.3275   0.00    0.0
2005/04/02 00:28:00.000  -3976219.3656   3382371.6457   3652511.3644   4   6   2.7118   2.6039   3.0679  -2.3373   2.0895  -2.3329   0.00    0.0
2005/04/02 00:28:30.000  -3976219.2445   3382371.8459   3652511.3205   4   6   2.7102   2.5976   3.0849  -2.3328   2.0908  -2.3384   0.00    0.0
2005/04/02 00:29:00.000  -3976219.3511   3382371.6722   3652511.0905   4   6   2.7088   2.5914   3.1023  -2.3283   2.0923  -2.3442   0.00    0.0
2005/04/02 00:29:30.000  -3976218.9491   3382371.7737   3652511.0871   4   6   2.7075   2.5854   3.1201  -2.3241   2.0940  -2.3502   0.00    0.0
2005/04/02 00:30:00.000  -3976219.1143   3382371.9517   3652510.8760   4   6   2.7064   2.5795   3.1381  -2.3199   2.0958  -2.3564   0.00    0.0
2005/04/02 00:30:30.000  -3976219.1163   3382371.3271   3652511.1064   4   6   2.7054   2.5737   3.1564  -2.3159   2.0979  -2.3628   0.00    0.0
2005/04/02 00:31:00.000  -3976218.9085   3382371.4291   3652511.3451   4   6   2.7046   2.5681   3.1751  -2.3121   2.1002  -2.3694   0.00    0.0
2005/04/02 00:31:30.000  -3976218.9569   3382371.4561   3652511.3015   4   6   2.7040   2.5626   3.1941  -2.3084   2.1027  -2.3762   0.00    0.0
2005/04/02 00:32:00.000  -3976219.4615   3382371.9376   3652511.9097   4   6   2.7035   2.5572   3.2134  -2.3049   2.1053  -2.3832   0.00    0.0
2005/04/02 00:32:30.000  -3976218.9165   3382371.4738   3652511.4030   4   6   2.7032   2.5520   3.2331  -2.3015   2.1083  -2.3905   0.00    0.0
2005/04/02 00:33:00.000  -3976219.2006   3382371.6324   3652511.7010   4   6   2.7030   2.5470   3.2531  -2.2983   2.1114  -2.3980   0.00    0.0
2005/04/02 00:33:30.000  -3976219.0710   3382371.7247   3652511.4043   4   6   2.7031   2.5420   3.2734  -2.2953   2.1148  -2.4057   0.00    0.0
2005/04/02 00:34:00.000  -3976219.7257   3382372.4812   3652511.5305   4   6   2.7033   2.5373   3.2941  -2.2924   2.1184  -2.4137   0.00    0.0
2005/04/02 00:34:30.000  -3976219.2354   3382371.8207   3652511.4962   4   6   2.7037   2.5327   3.3152  -2.2897   2.1222  -2.4219   0.00    0.0
2005/04/02 00:35:00.000  -3976219.2669   3382372.0385   3652511.5088   4   6   2.7043   2.5282   3.3365  -2.2872   2.1263  -2.4303   0.00    0.0
2005/04/02 00:35:30.000  -3976219.6482   3382371.9324   3652511.8416   4   6   2.7051   2.5239   3.3582  -2.2849   2.1307  -2.4390   0.00    0.0
2005/04/02 00:36:00.000  -3976219.4584   3382371.8301   3652511.6357   4   6   2.7061   2.5198   3.3803  -2.2828   2.1353  -2.4479   0.00    0.0
2005/04/02 00:36:30.000  -3976219.1442   3382371.4621   3652511.8695   4   6   2.7072   2.5159   3.4027  -2.2808   2.1402  -2.4571   0.01    0.0
2005/04/02 00:37:00.000  -3976219.0481   3382371.4814   3652511.5729   4   6   2.7086   2.5121   3.4255  -2.2791   2.1453  -2.4665   0.01    0.0
2005/04/02 00:37:30.000  -3976219.7383   3382371.8416   3652511.8686   4   6   2.7102   2.5084   3.4486  -2.2775   2.1508  -2.4761   0.01    0.0
2005/04/02 00:38:00.000  -3976219.3772   3382372.0012   3652510.8806   4   6   2.7119   2.5050   3.4720  -2.2762   2.1565  -2.4861   0.01    0.0
2005/04/02 00:38:30.000  -3976219.2046   3382371.2009   3652510.8835   4   6   2.7139   2.5017   3.4959  -2.2750   2.1624  -2.4963   0.01    0.0
2005/04/02 00:39:00.000  -3976219.1875   3382371.7362   3652511.1934   4   6   2.7161   2.4986   3.5200  -2.2741   2.1687  -2.5067   0.01    0.0
2005/04/02 00:39:30.000  -3976219.4072   3382371.8479   3652512.2884   4   6   2.7185   2.4957   3.5445  -2.2734   2.1753  -2.5174   0.01    0.0
2005/04/02 00:40:00.000  -3976219.2494   3382371.9818   3652511.8880   4   6   2.7210   2.4930   3.5694  -2.2729   2.1821  -2.5284   0.01    0.0
2005/04/02 00:40:30.000  -3976219.3893   3382371.9614   3652511.4106   4   6   2.7239   2.4904   3.5945  -2.2726   2.1893  -2.5396   0.01    0.0
2005/04/02 00:41:00.000  -3976219.5669   3382371.7409   3652511.2542   4   6   2.7269   2.4881   3.6201  -2.2725   2.1967  -2.5511   0.01    0.0
2005/04/02 00:41:30.000  -3976218.5479   3382371.2092   3652510.6627   4   6   2.7301   2.4859   3.6459  -2.2726   2.2045  -2.5629   0.01    0.0
2005/04/02 00:42:00.000  -3976219.2979   3382371.6447   3652511.5284   4   6   2.7336   2.4839   3.6721  -2.2730   2.2126  -2.5749   0.01    0.0
2005/04/02 00:42:30.000  -3976219.5155   3382372.1545   3652511.3205   4   6   2.7373   2.4822   3.6986  -2.2736   2.2210  -2.5872   0.01    0.0
2005/04/02 00:43:00.000  -3976219.1070   3382371.8198   3652511.3054   4   6   2.7412   2.4806   3.7254  -2.2744   2.2297  -2.5998   0.01    0.0
2005/04/02 00:43:30.000  -3976219.1991   3382371.4364   3652510.9489   4   6   2.7453   2.4792   3.7525  -2.2755   2.2387  -2.6126   0.01    0.0
2005/04/02 00:44:00.000  -3976219.8133   3382372.0491   3652511.3615   4   6   2.7497   2.4780   3.7800  -2.2768   2.2481  -2.6257   0.01    0.0
2005/04/02 00:44:30.000  -3976219.8070   3382372.0194   3652511.3370   4   6   2.7543   2.4771   3.8077  -2.2783   2.2577  -2.6390   0.01    0.0
2005/04/02 00:45:00.000  -3976219.4735   3382371.7351   3652511.5418   4   6   2.7591   2.4763   3.8357  -2.2801   2.2677  -2.6526   0.01    0.0
2005/04/02 00:45:30.000  -3976219.2718   3382371.5189   3652511.5269   4   6   2.7641   2.4758   3.8640  -2.2821   2.2781  -2.6665   0.01    0.0
2005/04/02 00:46:00.000  -3976219.6501   3382371.6757   3652512.1185   4   6   2.7694   2.4754   3.8925  -2.2844   2.2887  -2.6806   0.01    0.0
2005/04/02 00:46:30.000  -3976219.0164   3382371.5701   3652511.2522   4   6   2.7749   2.4753   3.9213  -2.2869   2.2997  -2.6949   0.01    0.0
2005/04/02 00:47:00.000  -3976218.9568   3382371.2227   3652511.0074   4   6   2.7806   2.4754   3.9503  -2.2897   2.3110  -2.7095   0.01    0.0
2005/04/02 00:47:30.000  -3976219.1618   3382371.4953   3652511.1242   4   6   2.7866   2.4757   3.9796  -2.2928   2.3226  -2.7243   0.01    0.0
2005/04/02 00:48:00.000  -3976219.3044   3382371.5903   3652511.7571   4   6   2.7928   2.4763   4.0090  -2.2960   2.3345  -2.7394   0.01    0.0
2005/04/02 00:48:30.000  -3976218.9072   3382371.3954   3652511.1184   4   6   2.7993   2.4770   4.0387  -2.2996   2.3468  -2.7546   0.01    0.0
2005/04/02 00:49:00.000  -3976219.2294   3382371.7670   3652511.2771   4   6   2.8059   2.4780   4.0685  -2.3034   2.3594  -2.7701   0.01    0.0
2005/04/02 00:49:30.000  -3976219.5861   3382371.8071   3652512.0127   4   6   2.8128   2.4793   4.0984  -2.3074   2.3723  -2.7858   0.01    0.0
2005/04/02 00:50:00.000  -3976219.3592   3382372.0163   3652511.1347   4   6   2.8200   2.4807   4.1285  -2.3117   2.3855  -2.8017   0.01    0.0
2005/04/02 00:50:30.000  -3976219.2459   3382371.7405   3652511.1107   4   6   2.8274   2.4824   4.1587  -2.3163   2.3990  -2.8178   0.01    0.0
2005/04/02 00:51:00.000  -3976219.1291   3382371.8609   3652511.0099   4   6   2.8350   2.4843   4.1890  -2.3212   2.4128  -2.8341   0.01    0.0
2005/04/02 00:51:30.000  -3976219.5420   3382371.4292   3652511.6097   4   6   2.8428   2.4865   4.2193  -2.3263   2.4268  -2.8505   0.01    0.0
2005/04/02 00:52:00.000  -3976219.1025   3382371.6870   3652510.9664   4   6   2.8508   2.4888   4.2497  -2.3316   2.4412  -2.8671   0.01    0.0
2005/04/02 00:52:30.000  -3976219.7289   3382371.5774   3652512.1751   4   6   2.8591   2.4915   4.2801  -2.3372   2.4559  -2.8839   0.01    0.0
2005/04/02 00:53:00.000  -3976219.0335   3382371.7078   3652511.1389   4   6   2.8676   2.4943   4.3104  -2.3431   2.4708  -2.9008   0.01    0.0
2005/04/02 00:53:30.000  -3976219.4895   3382371.7667   3652511.1603   4   6   2.8763   2.4974   4.3407  -2.3492   2.4859  -2.9178   0.01    0.0
2005/04/02 00:54:00.000  -3976218.7496   3382371.3785   3652511.0400   4   6   2.8853   2.5007   4.3709  -2.3556   2.5013  -2.9349   0.01    0.0
2005/04/02 00:54:30.000  -3976218.6458   3382371.5833   3652510.5978   4   6   2.8944   2.5043   4.4009  -2.3622   2.5169  -2.9521   0.01    0.0
2005/04/02 00:55:00.000  -3976219.3753   3382371.8007   3652511.7578   4   6   2.9038   2.5081   4.4308  -2.3691   2.5328  -2.9693   0.01    0.0
2005/04/02 00:55:30.000  -3976219.6802   3382372.0886   3652511.8294   4   6   2.9134   2.5122   4.4605  -2.3762   2.5488  -2.9867   0.01    0.0
2005/04/02 00:56:00.000  -3976219.0217   3382371.6319   3652511.3675   4   6   2.9231   2.5164   4.4900  -2.3836   2.5651  -3.0040   0.01    0.0
2005/04/02 00:56:30.000  -3976219.4334   3382371.8836   3652510.9636   4   6   2.9331   2.5209   4.5192  -2.3912   2.5815  -3.0214   0.01    0.0
2005/04/02 00:57:00.000  -3976219.6997   3382372.5059   3652513.0245   4   5  11.3033  12.0127  24.0801 -11.5726  16.8660 -16.3493   0.01    0.0
2005/04/02 00:57:30.000  -3976219.0452   3382371.2918   3652510.8880   4   5  13.4257  14.2220  28.7458 -13.7507  20.0998 -19.5195   0.01    0.0
2005/04/02 00:58:00.000  -3976222.1146   3382374.8369   3652516.5494   4   5  14.6721  15.4908  31.5400 -15.0142  21.9943 -21.3963   0.01    0.0
2005/04/02 00:58:30.000  -3976223.8469   3382376.1921   3652521.1106   4   5  16.2099  17.0577  34.9714 -16.5725  24.3247 -23.7043   0.01    0.0
2005/04/02 00:59:00.000  -3976222.5247   3382375.3086   3652518.5012   4   5  17.9165  18.7907  38.7752 -18.2978  26.9028 -26.2620   0.01    0.0
2005/04/02 00:59:30.000  -3976217.7786   3382370.1412   3652507.5796   4   5  19.8089  20.7060  42.9867 -20.2066  29.7527 -29.0940   0.01    0.0
