% program   : RTKLIB ver.EX 2.5.0
% inp file  : ../rinex/07590920.05o
% inp file  : ../rinex/30400920.05n
% inp file  : ../rinex/30400920.05o
% obs start : 2005/04/02 00:00:00.0 GPST (week1316 518400.0s)
% obs end   : 2005/04/02 00:59:30.0 GPST (week1316 521970.0s)
% pos mode  : Kinematic
% freqs     : L1+L2/E5b
% solution  : Forward
% elev mask : 15.0 deg
% dynamics  : off
% tidecorr  :
% ionos opt : Broadcast
% tropo opt : Saastamoinen
% ephemeris : Broadcast
% navi sys  : GPS
% amb res   : Fix and Hold
% val thres : 3.0
% antenna1  : TRM29659.00     NONE  ( 0.0000  0.0000  0.0000)
% antenna2  : TRM29659.00     NONE  ( 0.0000  0.0000  0.0000)
% ref pos   :  35 07 55.40544  139 37 27.50368    73.9077
%
% (lat/lon/height=WGS84/geodetic,Q=1:fix,2:float,3:sbas,4:dgps,5:single,6:ppp,ns=# of satellites)
%  GPST                          latitude(d'")   longitude(d'")  height(m)   Q  ns   sdn(m)   sde(m)   sdu(m)  sdne(m)  sdeu(m)  sdue(m) age(s)  ratio
2005/04/02 00:00:00.000257661   35 09 39.11518  139 36 49.82343    32.6435   2   7   1.5867   1.2230   3.6707   0.6000  -1.2950  -1.4206   0.00    0.0
2005/04/02 00:00:30.000215820   35 09 39.11982  139 36 49.82814    31.9857   2   7   0.9117   0.8229   1.5768   0.0734  -0.3568  -0.5770   0.00    0.0
2005/04/02 00:01:00.000173979   35 09 39.11981  139 36 49.83125    31.8026   2   7   0.5979   0.6618   0.9072  -0.2159   0.2168  -0.3311   0.00    0.0
2005/04/02 00:01:30.000132136   35 09 39.11618  139 36 49.83179    31.9610   2   7   0.4280   0.5693   0.6130  -0.2313   0.2681  -0.2371   0.00    0.0
2005/04/02 00:02:00.000090296   35 09 39.11551  139 36 49.83202    31.8899   2   7   0.3269   0.5067   0.4558  -0.2255   0.2666  -0.1917   0.00    0.0
2005/04/02 00:02:30.000048450   35 09 39.11747  139 36 49.83494    31.9011   1   7   0.0059   0.0044   0.0135   0.0023  -0.0044  -0.0054   0.00   64.3
2005/04/02 00:03:00.000006607   35 09 39.11738  139 36 49.83487    31.9141   1   7   0.0060   0.0045   0.0135   0.0023  -0.0045  -0.0053   0.00   74.9
2005/04/02 00:03:29.999964765   35 09 39.11732  139 36 49.83480    31.9184   1   7   0.0059   0.0042   0.0135   0.0022  -0.0044  -0.0053   0.00   74.1
2005/04/02 00:03:59.999922920   35 09 39.11745  139 36 49.83477    31.9165   1   7   0.0057   0.0042   0.0134   0.0022  -0.0045  -0.0054   0.00   71.5
2005/04/02 00:04:29.999881076   35 09 39.11749  139 36 49.83505    31.9005   1   7   0.0059   0.0045   0.0134   0.0019  -0.0044  -0.0051   0.00   65.3
2005/04/02 00:04:59.999839232   35 09 39.11760  139 36 49.83488    31.9062   1   7   0.0057   0.0043   0.0134   0.0023  -0.0045  -0.0051   0.00   64.5
2005/04/02 00:05:29.999797387   35 09 39.11765  139 36 49.83474    31.9123   1   7   0.0060   0.0045   0.0133   0.0023  -0.0044  -0.0051   0.00   66.5
2005/04/02 00:05:59.999755540   35 09 39.11767  139 36 49.83480    31.9030   1   7   0.0060   0.0041   0.0133   0.0024  -0.0045  -0.0050   0.00   67.1
2005/04/02 00:06:29.999713690   35 09 39.11760  139 36 49.83480    31.9043   1   7   0.0060   0.0039   0.0134   0.0018  -0.0043  -0.0050   0.00   67.7
2005/04/02 00:06:59.999671842   35 09 39.11748  139 36 49.83469    31.9098   1   7   0.0056   0.0045   0.0133   0.0023  -0.0044  -0.0049   0.00   67.4
2005/04/02 00:07:29.999629991   35 09 39.11748  139 36 49.83468    31.9117   1   7   0.0058   0.0045   0.0133   0.0017  -0.0043  -0.0050   0.00  112.0
2005/04/02 00:07:59.999588139   35 09 39.11752  139 36 49.83478    31.9066   1   7   0.0058   0.0043   0.0133   0.0021  -0.0043  -0.0048   0.00  127.8
2005/04/02 00:08:29.999546288   35 09 39.11744  139 36 49.83466    31.9051   1   7   0.0057   0.0044   0.0132   0.0024  -0.0043  -0.0048   0.00  141.9
2005/04/02 00:08:59.999504434   35 09 39.11736  139 36 49.83481    31.9064   1   7   0.0060   0.0046   0.0133   0.0023  -0.0041  -0.0046   0.00  155.6
2005/04/02 00:09:30.000462577   35 09 39.11751  139 36 49.83506    31.8811   1   7   0.0059   0.0039   0.0133   0.0021  -0.0041  -0.0047   0.00  166.2
2005/04/02 00:10:00.000420719   35 09 39.11748  139 36 49.83492    31.9018   1   7   0.0057   0.0044   0.0132   0.0021  -0.0041  -0.0048   0.00  180.0
2005/04/02 00:10:30.000378859   35 09 39.11746  139 36 49.83480    31.9004   1   7   0.0059   0.0043   0.0131   0.0021  -0.0042  -0.0047   0.00  198.7
2005/04/02 00:11:00.000337000   35 09 39.11751  139 36 49.83489    31.8989   1   7   0.0059   0.0049   0.0131   0.0020  -0.0041  -0.0046   0.00  212.1
2005/04/02 00:11:30.000295139   35 09 39.11761  139 36 49.83499    31.8945   1   7   0.0059   0.0043   0.0131   0.0022  -0.0040  -0.0046   0.00  223.9
2005/04/02 00:12:00.000253272   35 09 39.11753  139 36 49.83491    31.9088   1   7   0.0057   0.0042   0.0131   0.0020  -0.0039  -0.0047   0.00  239.7
2005/04/02 00:12:30.000211409   35 09 39.11760  139 36 49.83499    31.8984   1   7   0.0058   0.0045   0.0131   0.0020  -0.0041  -0.0043   0.00  263.3
2005/04/02 00:13:00.000169542   35 09 39.11762  139 36 49.83491    31.9075   1   7   0.0058   0.0043   0.0130   0.0022  -0.0041  -0.0044   0.00  276.7
2005/04/02 00:13:30.000127675   35 09 39.11761  139 36 49.83477    31.9046   1   7   0.0056   0.0043   0.0130   0.0021  -0.0040  -0.0045   0.00  289.0
2005/04/02 00:14:00.000085805   35 09 39.11754  139 36 49.83476    31.9159   1   7   0.0057   0.0041   0.0130   0.0021  -0.0042  -0.0043   0.00  301.7
2005/04/02 00:14:30.000043932   35 09 39.11761  139 36 49.83488    31.9057   1   7   0.0059   0.0044   0.0130   0.0019  -0.0040  -0.0042   0.00  307.1
2005/04/02 00:15:00.000002059   35 09 39.11747  139 36 49.83494    31.9092   1   7   0.0059   0.0043   0.0130   0.0021  -0.0039  -0.0041   0.00  303.9
2005/04/02 00:15:29.999960185   35 09 39.11749  139 36 49.83487    31.9064   1   7   0.0060   0.0045   0.0129   0.0024  -0.0036  -0.0042   0.00  300.4
2005/04/02 00:15:59.999918311   35 09 39.11750  139 36 49.83496    31.9016   1   7   0.0056   0.0039   0.0129   0.0016  -0.0038  -0.0041   0.00  293.8
2005/04/02 00:16:29.999876435   35 09 39.11747  139 36 49.83492    31.9078   1   7   0.0060   0.0047   0.0129   0.0025  -0.0036  -0.0039   0.00  287.4
2005/04/02 00:16:59.999834556   35 09 39.11750  139 36 49.83490    31.9099   1   7   0.0058   0.0040   0.0129   0.0020  -0.0037  -0.0040   0.00  294.7
2005/04/02 00:17:29.999792676   35 09 39.11738  139 36 49.83491    31.9092   1   7   0.0058   0.0041   0.0129   0.0023  -0.0038  -0.0037   0.00  299.0
2005/04/02 00:17:59.999750787   35 09 39.11749  139 36 49.83499    31.9098   1   6   0.0062   0.0046   0.0141   0.0027  -0.0028  -0.0025   0.00  195.7
2005/04/02 00:18:29.999708894   35 09 39.11747  139 36 49.83497    31.8998   1   6   0.0062   0.0041   0.0142   0.0024  -0.0028  -0.0022   0.00  195.7
2005/04/02 00:18:59.999667000   35 09 39.11741  139 36 49.83502    31.9128   1   6   0.0058   0.0046   0.0142   0.0020  -0.0024  -0.0021   0.00  197.7
2005/04/02 00:19:29.999625102   35 09 39.11735  139 36 49.83495    31.9058   1   6   0.0060   0.0044   0.0141   0.0022  -0.0029  -0.0019   0.00  201.5
2005/04/02 00:19:59.999583197   35 09 39.11738  139 36 49.83490    31.9115   1   6   0.0062   0.0042   0.0141   0.0026  -0.0028  -0.0013   0.00  200.2
2005/04/02 00:20:29.999541296   35 09 39.11742  139 36 49.83489    31.9031   1   6   0.0060   0.0039   0.0141   0.0022  -0.0029  -0.0013   0.00  198.3
2005/04/02 00:20:59.999499395   35 09 39.11753  139 36 49.83499    31.9037   1   6   0.0062   0.0038   0.0141   0.0026  -0.0029  -0.0010   0.00  198.1
2005/04/02 00:21:30.000457497   35 09 39.11756  139 36 49.83483    31.9040   1   6   0.0062   0.0042   0.0141   0.0024  -0.0027   0.0011   0.00  202.0
2005/04/02 00:22:00.000415600   35 09 39.11745  139 36 49.83480    31.9159   1   6   0.0064   0.0044   0.0141   0.0027  -0.0025  -0.0009   0.00  212.7
2005/04/02 00:22:30.000373705   35 09 39.11740  139 36 49.83477    31.9055   1   6   0.0063   0.0043   0.0141   0.0021  -0.0025   0.0008   0.00  219.0
2005/04/02 00:23:00.000331813   35 09 39.11745  139 36 49.83485    31.9062   1   6   0.0063   0.0044   0.0141   0.0024  -0.0023   0.0010   0.00  230.8
2005/04/02 00:23:30.000289912   35 09 39.11742  139 36 49.83481    31.9105   1   6   0.0063   0.0042   0.0141   0.0026  -0.0026   0.0016   0.00  238.4
2005/04/02 00:24:00.000248016   35 09 39.11756  139 36 49.83503    31.8950   1   6   0.0063   0.0043   0.0141   0.0024  -0.0025   0.0021   0.00  245.1
2005/04/02 00:24:30.000206118   35 09 39.11752  139 36 49.83500    31.9073   1   6   0.0060   0.0041   0.0142   0.0018  -0.0025   0.0023   0.00  255.3
2005/04/02 00:25:00.000164223   35 09 39.11744  139 36 49.83488    31.9098   1   6   0.0065   0.0045   0.0141   0.0028  -0.0024   0.0023   0.00  263.4
2005/04/02 00:25:30.000122322   35 09 39.11742  139 36 49.83491    31.9108   1   6   0.0066   0.0049   0.0142   0.0025  -0.0022   0.0023   0.00  270.9
2005/04/02 00:26:00.000080426   35 09 39.11745  139 36 49.83500    31.9044   1   6   0.0063   0.0037   0.0142   0.0017  -0.0022   0.0025   0.00  278.1
2005/04/02 00:26:30.000038524   35 09 39.11741  139 36 49.83512    31.9073   1   6   0.0064   0.0040   0.0142   0.0022  -0.0021   0.0029   0.00  292.2
2005/04/02 00:26:59.999996625   35 09 39.11744  139 36 49.83499    31.9098   1   6   0.0065   0.0039   0.0142   0.0029  -0.0021   0.0028   0.00  304.9
2005/04/02 00:27:29.999954721   35 09 39.11739  139 36 49.83497    31.9170   1   6   0.0065   0.0040   0.0142   0.0021  -0.0016   0.0028   0.00  313.9
2005/04/02 00:27:59.999912818   35 09 39.11745  139 36 49.83490    31.9088   1   6   0.0064   0.0040   0.0142   0.0023  -0.0020   0.0032   0.00  324.5
2005/04/02 00:28:29.999870914   35 09 39.11740  139 36 49.83483    31.9084   1   6   0.0067   0.0045   0.0142   0.0026  -0.0015   0.0031   0.00  337.1
2005/04/02 00:28:59.999829008   35 09 39.11742  139 36 49.83488    31.9033   1   6   0.0065   0.0039   0.0142   0.0030  -0.0025   0.0037   0.00  352.5
2005/04/02 00:29:29.999787106   35 09 39.11737  139 36 49.83488    31.9074   1   6   0.0068   0.0039   0.0142   0.0021  -0.0020   0.0035   0.00  359.2
2005/04/02 00:29:59.999745194   35 09 39.11750  139 36 49.83500    31.9081   1   6   0.0071   0.0049   0.0143   0.0012  -0.0015   0.0033   0.00  352.5
2005/04/02 00:30:29.999703284   35 09 39.11738  139 36 49.83494    31.9012   1   6   0.0067   0.0041   0.0143   0.0025  -0.0017   0.0037   0.00  344.8
2005/04/02 00:30:59.999661374   35 09 39.11734  139 36 49.83502    31.9097   1   6   0.0068   0.0045   0.0142   0.0018  -0.0020   0.0041   0.00  344.4
2005/04/02 00:31:29.999619460   35 09 39.11737  139 36 49.83490    31.9018   1   6   0.0068   0.0044   0.0143   0.0025  -0.0010   0.0039   0.00  345.4
2005/04/02 00:31:59.999577543   35 09 39.11758  139 36 49.83511    31.8906   1   6   0.0070   0.0041   0.0144   0.0025  -0.0014   0.0040   0.00  346.8
2005/04/02 00:32:29.999535629   35 09 39.11749  139 36 49.83494    31.9044   1   6   0.0070   0.0043   0.0144   0.0024  -0.0006   0.0041   0.00  349.4
2005/04/02 00:33:00.000493711   35 09 39.11734  139 36 49.83493    31.9095   1   6   0.0068   0.0039   0.0144   0.0026  -0.0014   0.0044   0.00  362.7
2005/04/02 00:33:30.000451795   35 09 39.11756  139 36 49.83504    31.9105   1   6   0.0064   0.0039   0.0144   0.0029  -0.0013   0.0046   0.00  385.6
2005/04/02 00:34:00.000409875   35 09 39.11760  139 36 49.83482    31.9165   1   6   0.0070   0.0041   0.0145   0.0024  -0.0006   0.0045   0.00  417.5
2005/04/02 00:34:30.000367959   35 09 39.11762  139 36 49.83491    31.9041   1   6   0.0070   0.0044   0.0145   0.0021  -0.0009   0.0046   0.00  454.9
2005/04/02 00:35:00.000326037   35 09 39.11760  139 36 49.83496    31.9110   1   6   0.0071   0.0042   0.0145   0.0025  -0.0011   0.0048   0.00  484.5
2005/04/02 00:35:30.000284116   35 09 39.11748  139 36 49.83491    31.8929   1   6   0.0069   0.0044   0.0146   0.0026  -0.0007   0.0049   0.00  499.8
2005/04/02 00:36:00.000242193   35 09 39.11763  139 36 49.83508    31.9120   1   6   0.0072   0.0038   0.0146   0.0027  -0.0008   0.0050   0.00  517.8
2005/04/02 00:36:30.000200271   35 09 39.11751  139 36 49.83501    31.8963   1   6   0.0071   0.0044   0.0146   0.0026  -0.0006   0.0051   0.01  531.8
2005/04/02 00:37:00.000158345   35 09 39.11751  139 36 49.83490    31.9074   1   6   0.0072   0.0041   0.0146   0.0025  -0.0010   0.0052   0.01  546.6
2005/04/02 00:37:30.000116416   35 09 39.11740  139 36 49.83489    31.9016   1   6   0.0071   0.0045   0.0147   0.0021   0.0005   0.0054   0.01  555.4
2005/04/02 00:38:00.000074493   35 09 39.11739  139 36 49.83495    31.9018   1   6   0.0072   0.0038   0.0147   0.0031  -0.0011   0.0055   0.01  566.9
2005/04/02 00:38:30.000032572   35 09 39.11737  139 36 49.83501    31.9035   1   6   0.0072   0.0046   0.0147   0.0018   0.0013   0.0055   0.01  570.5
2005/04/02 00:38:59.999990657   35 09 39.11732  139 36 49.83483    31.9022   1   6   0.0073   0.0041   0.0148   0.0029   0.0004   0.0057   0.01  562.8
2005/04/02 00:39:29.999948739   35 09 39.11728  139 36 49.83483    31.9016   1   6   0.0071   0.0039   0.0148   0.0031   0.0002   0.0058   0.01  570.0
2005/04/02 00:39:59.999906822   35 09 39.11751  139 36 49.83484    31.9022   1   6   0.0076   0.0039   0.0148   0.0028   0.0007   0.0058   0.01  566.5
2005/04/02 00:40:29.999864906   35 09 39.11754  139 36 49.83500    31.9080   1   6   0.0078   0.0044   0.0149   0.0021   0.0013   0.0059   0.01  571.5
2005/04/02 00:40:59.999822987   35 09 39.11735  139 36 49.83495    31.8965   1   6   0.0075   0.0044   0.0150   0.0022   0.0013   0.0061   0.01  566.6
2005/04/02 00:41:29.999781064   35 09 39.11742  139 36 49.83489    31.8984   1   6   0.0075   0.0044   0.0150   0.0023   0.0014   0.0061   0.01  564.2
2005/04/02 00:41:59.999739137   35 09 39.11725  139 36 49.83484    31.9084   1   6   0.0074   0.0036   0.0150   0.0029   0.0011   0.0063   0.01  567.0
2005/04/02 00:42:29.999697211   35 09 39.11721  139 36 49.83492    31.9022   1   6   0.0077   0.0042   0.0151   0.0024   0.0013   0.0063   0.01  567.6
2005/04/02 00:42:59.999655279   35 09 39.11719  139 36 49.83480    31.9001   1   6   0.0074   0.0043   0.0151   0.0027   0.0015   0.0066   0.01  569.4
2005/04/02 00:43:29.999613344   35 09 39.11708  139 36 49.83473    31.8978   1   6   0.0078   0.0039   0.0152   0.0032   0.0010   0.0066   0.01  565.5
2005/04/02 00:43:59.999571403   35 09 39.11725  139 36 49.83489    31.9006   1   6   0.0077   0.0043   0.0153   0.0029   0.0014   0.0067   0.01  561.0
2005/04/02 00:44:29.999529458   35 09 39.11741  139 36 49.83478    31.9116   1   6   0.0078   0.0040   0.0153   0.0029   0.0015   0.0068   0.01  558.9
2005/04/02 00:45:00.000487511   35 09 39.11744  139 36 49.83495    31.9040   1   6   0.0080   0.0041   0.0154   0.0028   0.0014   0.0069   0.01  563.8
2005/04/02 00:45:30.000445560   35 09 39.11745  139 36 49.83484    31.8931   1   6   0.0080   0.0038   0.0154   0.0027   0.0016   0.0069   0.01  551.1
2005/04/02 00:46:00.000403603   35 09 39.11754  139 36 49.83483    31.8961   1   6   0.0077   0.0043   0.0155   0.0028   0.0020   0.0071   0.01  539.4
2005/04/02 00:46:30.000361646   35 09 39.11757  139 36 49.83490    31.8908   1   6   0.0082   0.0046   0.0156   0.0023   0.0021   0.0071   0.01  535.1
2005/04/02 00:47:00.000319684   35 09 39.11753  139 36 49.83470    31.8890   1   6   0.0083   0.0039   0.0157   0.0027   0.0020   0.0071   0.01  526.6
2005/04/02 00:47:30.000277715   35 09 39.11750  139 36 49.83468    31.9011   1   6   0.0082   0.0045   0.0157   0.0027   0.0021   0.0073   0.01  525.0
2005/04/02 00:48:00.000235748   35 09 39.11743  139 36 49.83461    31.9039   1   6   0.0082   0.0045   0.0158   0.0026   0.0019   0.0074   0.01  528.5
2005/04/02 00:48:30.000193771   35 09 39.11732  139 36 49.83464    31.8919   1   6   0.0083   0.0043   0.0159   0.0027   0.0022   0.0075   0.01  521.8
2005/04/02 00:49:00.000151798   35 09 39.11759  139 36 49.83483    31.9050   1   6   0.0084   0.0046   0.0159   0.0023   0.0023   0.0076   0.01  514.4
2005/04/02 00:49:30.000109818   35 09 39.11740  139 36 49.83468    31.8977   1   6   0.0085   0.0047   0.0160   0.0022   0.0022   0.0077   0.01  512.0
2005/04/02 00:50:00.000067834   35 09 39.11746  139 36 49.83473    31.8979   1   6   0.0083   0.0042   0.0161   0.0029   0.0023   0.0078   0.01  512.7
2005/04/02 00:50:30.000025844   35 09 39.11737  139 36 49.83471    31.8948   1   6   0.0085   0.0040   0.0161   0.0027   0.0021   0.0079   0.01  517.2
2005/04/02 00:50:59.999983851   35 09 39.11743  139 36 49.83475    31.9035   1   6   0.0086   0.0046   0.0163   0.0021   0.0027   0.0079   0.01  525.8
2005/04/02 00:51:29.999941854   35 09 39.11715  139 36 49.83482    31.8975   1   6   0.0087   0.0038   0.0163   0.0027   0.0023   0.0080   0.01  534.7
2005/04/02 00:51:59.999899853   35 09 39.11720  139 36 49.83494    31.8964   1   6   0.0087   0.0038   0.0164   0.0032   0.0020   0.0082   0.01  537.9
2005/04/02 00:52:29.999857847   35 09 39.11705  139 36 49.83485    31.8859   1   6   0.0085   0.0037   0.0164   0.0031   0.0021   0.0083   0.01  533.7
2005/04/02 00:52:59.999815839   35 09 39.11723  139 36 49.83494    31.8924   1   6   0.0086   0.0042   0.0165   0.0027   0.0022   0.0084   0.01  536.5
2005/04/02 00:53:29.999773824   35 09 39.11735  139 36 49.83486    31.8957   1   6   0.0089   0.0046   0.0167   0.0024   0.0027   0.0084   0.01  542.7
2005/04/02 00:53:59.999731803   35 09 39.11746  139 36 49.83486    31.9066   1   6   0.0088   0.0043   0.0167   0.0028   0.0023   0.0086   0.01  549.3
2005/04/02 00:54:29.999689781   35 09 39.11746  139 36 49.83486    31.9059   1   6   0.0091   0.0046   0.0168   0.0015   0.0029   0.0085   0.01  548.1
2005/04/02 00:54:59.999647752   35 09 39.11754  139 36 49.83489    31.9007   1   6   0.0089   0.0045   0.0169   0.0021   0.0027   0.0087   0.01  549.0
2005/04/02 00:55:29.999605720   35 09 39.11768  139 36 49.83494    31.9152   1   6   0.0090   0.0038   0.0170   0.0031   0.0023   0.0088   0.01  553.1
2005/04/02 00:55:59.999563684   35 09 39.11738  139 36 49.83485    31.9167   1   6   0.0092   0.0045   0.0171   0.0024   0.0029   0.0088   0.01  556.5
2005/04/02 00:56:29.999521639   35 09 39.11750  139 36 49.83474    31.8996   1   6   0.0093   0.0045   0.0172   0.0021   0.0030   0.0088   0.01  557.2
2005/04/02 00:57:00.000479543   35 09 39.11838  139 36 49.83455    31.9870   1   5   0.0404   0.0084   0.1049  -0.0166  -0.0271   0.0644   0.01  999.9
