% program   : rnx2rtkp ver.EX 2.5.0
% inp file  : ../rinex/07590920.05o
% inp file  : ../rinex/30400920.05n
% inp file  : ../rinex/30400920.05o
% obs start : 2005/04/02 00:00:00.0 GPST (week1316 518400.0s)
% obs end   : 2005/04/02 00:59:30.0 GPST (week1316 521970.0s)
% ref pos   :  35.132063637  139.624300387    75.3847
%
% (lat/lon/height=WGS84/ellipsoidal,Q=1:fix,2:float,3:sbas,4:dgps,5:single,6:ppp,ns=# of satellites)
%  GPST          latitude(deg) longitude(deg)  height(m)   Q  ns   sdn(m)   sde(m)   sdu(m)  sdne(m)  sdeu(m)  sdun(m) age(s)  ratio
1316 518400.000   35.160871904  139.613833687    70.5757   2   7   1.5867   1.2230   3.6707   0.6000  -1.2950  -1.4206   0.00    0.0
1316 518430.000   35.160873148  139.613834962    69.9364   2   7   0.9120   0.8277   1.5787   0.0510  -0.3489  -0.5853   0.00    0.0
1316 518460.000   35.160873164  139.613835834    69.7524   2   7   0.0000  67.4891  86.8089  67.6817  83.3692  82.9683   0.00    0.0
1316 518490.000   35.160872161  139.613835985    69.9120   2   7   0.4281   0.5695   0.6132  -0.2314   0.2684  -0.2373   0.00    0.0
1316 518520.000   35.160872533  139.613836865    69.8576   1   7   0.1022   0.1948   0.0000   0.1039   0.0487   0.0657   0.00   50.4
1316 518550.000   35.160871950  139.613835858    69.7505   2   7 219.9844 347.7562   0.0000 217.2342 237.1166 136.4051   0.00    0.0
1316 518580.000   35.160872502  139.613836829    69.8679   1   7   0.0060   0.0042   0.0135   0.0021  -0.0044  -0.0053   0.00   74.7
1316 518610.000   35.160872485  139.613836808    69.8720   1   7   0.0000   0.0000  13.6419 -18.7431 -22.7285  16.5501   0.00   73.3
1316 518640.000   35.160872520  139.613836800    69.8695   1   7   0.0000   0.2546   0.0000   0.2920   0.4270  -0.2466   0.00   70.4
1316 518670.000   35.160872531  139.613836879    69.8539   1   7   0.0000   0.1903   0.0000   0.1314  -0.0711  -0.0992   0.00   63.2
1316 518700.000   35.160872563  139.613836832    69.8596   1   7   0.0218   0.0802   0.0262   0.0711   0.0318  -0.0405   0.00   63.0
1316 518730.000   35.160872575  139.613836794    69.8660   1   7   0.1118   0.1388   0.0530   0.0550   0.0291   0.0446   0.00   64.8
1316 518760.000   35.160872582  139.613836809    69.8567   1   7   0.0000   0.0000   0.0618   0.0713   0.0747  -0.0794   0.00   65.7
1316 518790.000   35.160872562  139.613836811    69.8573   1   7   0.0000   0.0669   0.0000  -0.0673  -0.0423   0.0151   0.00   66.7
1316 518820.000   35.160872528  139.613836778    69.8632   1   7   0.0000   0.0000   0.0000  -0.0464  -0.0440   0.0474   0.00   66.5
1316 518850.000   35.160872530  139.613836776    69.8649   1   7   0.0418   0.0601   0.0000  -0.0709  -0.0478   0.0159   0.00   66.2
1316 518880.000   35.160872538  139.613836805    69.8596   1   7   0.0000   0.0000   0.0599   0.0662   0.0360   0.0469   0.00   74.0
1316 518910.000   35.160872516  139.613836771    69.8587   1   7   0.1064   0.0640   0.0664   0.0543   0.0107   0.0758   0.00   80.5
1316 518940.000   35.160872495  139.613836811    69.8598   1   7   0.0000   0.0000   0.0408  -0.0380   0.0163   0.0389   0.00   84.5
1316 518970.000   35.160872537  139.613836883    69.8346   1   7   0.0778   0.0000   0.0000   0.1083  -0.0424  -0.0276   0.00   85.2
1316 519000.000   35.160872529  139.613836843    69.8554   1   7   0.0000   0.0294   0.0198  -0.0415  -0.0342   0.0518   0.00   89.0
1316 519030.000   35.160872522  139.613836809    69.8540   1   7   0.0924   0.0000   0.0145   0.0709   0.0228  -0.0322   0.00   99.7
1316 519060.000   35.160872537  139.613836836    69.8527   1   7   0.0824   0.0000   0.0110  -0.0401   0.0125  -0.0211   0.00  106.8
1316 519090.000   35.160872565  139.613836863    69.8489   1   7   0.0942   0.1084   0.0000   0.0336  -0.0738   0.0196   0.00  112.2
1316 519120.000   35.160872542  139.613836842    69.8614   1   7   0.0657   0.0957   0.0416   0.0939   0.0535  -0.0602   0.00  121.9
1316 519150.000   35.160872562  139.613836864    69.8522   1   7   0.0000   0.1543   0.0511  -0.0558   0.0552  -0.0519   0.00  132.5
1316 519180.000   35.160872566  139.613836841    69.8608   1   7   0.0000   0.0588   0.0000   0.0623  -0.0095  -0.0587   0.00  199.7
1316 519210.001   35.160872563  139.613836802    69.8589   1   7   0.0723   0.0000   0.0245   0.0801   0.0125   0.0163   0.00  217.5
1316 519240.001   35.160872543  139.613836798    69.8699   1   7   0.0000   0.0932   0.0303   0.0825  -0.0027   0.0328   0.00  232.7
1316 519270.001   35.160872565  139.613836833    69.8598   1   7   0.0000   0.0000   0.0000   0.0790  -0.0264  -0.0336   0.00  239.7
1316 519300.001   35.160872524  139.613836849    69.8624   1   7   0.0961   0.1228   0.0000   0.0545   0.0330  -0.0670   0.00  240.1
1316 519330.000   35.160872530  139.613836829    69.8603   1   7   0.0971   0.1041   0.0000   0.1160   0.0125  -0.0300   0.00  238.8
1316 519360.001   35.160872533  139.613836854    69.8552   1   7   0.0000   0.0000   0.0185  -0.1188   0.0384  -0.0544   0.00  238.9
1316 519390.000   35.160872526  139.613836842    69.8614   1   7   0.0000   0.0720   0.0000  -0.0751  -0.0711   0.0695   0.00  235.8
1316 519420.001   35.160872534  139.613836838    69.8630   1   7   0.0000   0.0000   0.0000  -0.0725  -0.0347   0.0170   0.00  246.2
1316 519450.000   35.160872499  139.613836841    69.8633   1   7   0.0000   0.1174   0.0000   0.0515  -0.0367  -0.0333   0.00  251.3
1316 519480.000   35.160872532  139.613836863    69.8629   1   6   0.0908   0.0657   0.0000   0.0777  -0.0321  -0.0481   0.00  138.0
1316 519510.001   35.160872526  139.613836858    69.8532   1   6   0.0365   0.0000   0.0493   0.0163   0.0196   0.0470   0.00  140.2
1316 519540.001   35.160872508  139.613836872    69.8663   1   6   0.0000   0.0854   0.0000   0.0730  -0.0694  -0.0112   0.00  143.9
1316 519570.001   35.160872492  139.613836853    69.8595   1   6   0.0334   0.0863   0.0000   0.0312  -0.0264  -0.0310   0.00  148.8
1316 519600.000   35.160872499  139.613836839    69.8643   1   6   0.0000   0.0705   0.0627  -0.0490   0.0501   0.0143   0.00  149.6
1316 519630.000   35.160872511  139.613836834    69.8566   1   6   0.0000   0.0799   0.0000   0.0056  -0.0231   0.0279   0.00  150.5
1316 519659.999   35.160872542  139.613836863    69.8565   1   6   0.0860   0.0876   0.0000   0.0527  -0.0181  -0.0347   0.00  152.3
1316 519690.000   35.160872551  139.613836820    69.8575   1   6   0.0000   0.0000   0.0540  -0.0585   0.0504  -0.0375   0.00  156.8
1316 519720.000   35.160872521  139.613836810    69.8689   1   6   0.0000   0.0000   0.0000  -0.0090  -0.0485   0.0250   0.00  167.2
1316 519750.002   35.160872507  139.613836802    69.8593   1   6   0.0000   0.0522   0.0581  -0.0735  -0.0354   0.0838   0.00  173.9
1316 519780.002   35.160872519  139.613836823    69.8603   1   6   0.0000   0.0709   0.0441   0.0535   0.0433  -0.0367   0.00  185.4
1316 519810.000   35.160872512  139.613836814    69.8641   1   6   0.0335   0.0000   0.0000  -0.0858  -0.0124  -0.0501   0.00  192.6
1316 519840.000   35.160872549  139.613836875    69.8485   1   6   0.0000   0.1413   0.0000   0.0523  -0.0620   0.0513   0.00  199.6
1316 519870.002   35.160872540  139.613836867    69.8611   1   6   0.1090   0.0000   0.0000  -0.0660  -0.0334   0.0334   0.00  209.5
1316 519900.000   35.160872517  139.613836834    69.8640   1   6   0.0000   0.0000   0.0214   0.0400   0.0057   0.0157   0.00  218.0
1316 519930.002   35.160872510  139.613836840    69.8645   1   6   0.0000   0.0000   0.0882  -0.0987   0.0790  -0.0458   0.00  225.1
1316 519960.000   35.160872519  139.613836866    69.8586   1   6   0.0602   0.0000   0.0587  -0.0914   0.0240   0.0580   0.00  232.7
1316 519990.000   35.160872507  139.613836899    69.8611   1   6   0.0780   0.0000   0.0461  -0.0706  -0.0218   0.0606   0.00  246.4
1316 520020.002   35.160872516  139.613836864    69.8640   1   6   0.0000   0.1491   0.0000   0.0749  -0.0216  -0.0267   0.00  258.7
1316 520050.000   35.160872502  139.613836856    69.8711   1   6   0.0281   0.0000   0.0503  -0.0963   0.0378   0.0171   0.00  268.5
1316 520080.000   35.160872519  139.613836838    69.8622   1   6   0.0528   0.0746   0.0000   0.0351  -0.0110  -0.0445   0.00  279.5
1316 520110.000   35.160872504  139.613836818    69.8623   1   6   0.0477   0.0907   0.0517   0.0080   0.0121   0.0560   0.00  292.4
1316 520140.000   35.160872512  139.613836832    69.8569   1   6   0.1348   0.0378   0.0000  -0.1087   0.0236  -0.0624   0.00  307.7
1316 520170.000   35.160872497  139.613836832    69.8626   1   6   0.0962   0.0000   0.0000   0.0601  -0.0745   0.0563   0.00  315.1
1316 520200.002   35.160872533  139.613836866    69.8621   1   6   0.0000   0.0000   0.0587   0.0628   0.0654  -0.0641   0.00  310.4
1316 520230.002   35.160872499  139.613836850    69.8547   1   6   0.0000   0.1278   0.0225  -0.1105  -0.0324   0.0519   0.00  304.8
1316 520260.000   35.160872490  139.613836871    69.8635   1   6   0.0740   0.1382   0.0686  -0.1221   0.0394   0.0576   0.00  305.6
1316 520290.000   35.160872497  139.613836839    69.8557   1   6   0.0000   0.1104   0.0537  -0.0514   0.0470  -0.0270   0.00  307.6
1316 520320.000   35.160872555  139.613836896    69.8440   1   6   0.1203   0.0514   0.0611  -0.0373   0.0673  -0.0654   0.00  309.8
1316 520350.000   35.160872529  139.613836850    69.8585   1   6   0.0792   0.1090   0.0000  -0.0780  -0.0473  -0.0339   0.00  313.2
1316 520380.000   35.160872487  139.613836846    69.8633   1   6   0.1092   0.0000   0.0000   0.0512  -0.0224  -0.0410   0.00  326.2
1316 520410.003   35.160872551  139.613836878    69.8648   1   6   0.1359   0.0286   0.0000  -0.1219  -0.0529  -0.0096   0.00  348.0
1316 520440.000   35.160872561  139.613836817    69.8698   1   6   0.0569   0.0000   0.0000  -0.0755  -0.0455   0.0533   0.00  378.1
1316 520470.003   35.160872565  139.613836841    69.8584   1   6   0.0000   0.0000   0.0000  -0.0288  -0.0635   0.0743   0.00  413.5
1316 520500.003   35.160872559  139.613836854    69.8644   1   6   0.1359   0.0000   0.0000   0.0544   0.0419  -0.0646   0.00  441.6
1316 520530.000   35.160872528  139.613836841    69.8468   1   6   0.0000   0.0000   0.0335   0.1233  -0.0366   0.0630   0.00  456.7
1316 520560.003   35.160872568  139.613836888    69.8655   1   6   0.0421   0.0000   0.0000   0.0577  -0.0588   0.0487   0.00  474.1
1316 520590.003   35.160872534  139.613836869    69.8508   1   6   0.1175   0.0000   0.0000  -0.0857  -0.0251  -0.0304   0.01  487.6
1316 520620.000   35.160872534  139.613836838    69.8613   1   6   0.0000   0.0751   0.0000  -0.0896  -0.0874   0.0885   0.01  502.3
1316 520650.003   35.160872504  139.613836835    69.8554   1   6   0.0227   0.0000   0.0000   0.0195  -0.0202  -0.0520   0.01  512.1
1316 520680.003   35.160872502  139.613836853    69.8553   1   6   0.0000   0.1290   0.0459  -0.0210  -0.0238   0.0630   0.01  523.2
1316 520710.000   35.160872496  139.613836868    69.8574   1   6   0.0665   0.1484   0.0158  -0.1017  -0.0391   0.0569   0.01  533.5
1316 520740.000   35.160872483  139.613836818    69.8562   1   6   0.0000   0.1105   0.0495  -0.1121   0.0357   0.0264   0.01  537.3
1316 520770.000   35.160872471  139.613836820    69.8555   1   6   0.0000   0.1157   0.0393  -0.0924  -0.0220   0.0542   0.01  555.4
1316 520800.000   35.160872535  139.613836822    69.8557   1   6   0.1282   0.1069   0.0652  -0.0562   0.0617  -0.0452   0.01  561.8
1316 520830.000   35.160872544  139.613836866    69.8621   1   6   0.0000   0.0224   0.0000   0.0333   0.0085  -0.0297   0.01  566.8
1316 520860.003   35.160872490  139.613836853    69.8504   1   6   0.0000   0.0000   0.0000   0.1237  -0.0312   0.0132   0.01  562.3
1316 520890.003   35.160872510  139.613836836    69.8530   1   6   0.0649   0.1036   0.0000  -0.0926  -0.0614   0.0496   0.01  559.7
1316 520920.000   35.160872463  139.613836822    69.8622   1   6   0.0000   0.0000   0.0500  -0.0572   0.0530  -0.0495   0.01  562.3
1316 520950.000   35.160872452  139.613836842    69.8569   1   6   0.0000   0.0000   0.0803   0.0897   0.0530   0.0560   0.01  562.7
1316 520980.003   35.160872447  139.613836812    69.8542   1   6   0.0000   0.1149   0.0000  -0.0293  -0.0480   0.0490   0.01  564.9
1316 521010.000   35.160872417  139.613836792    69.8524   1   6   0.0000   0.0000   0.0421   0.0779  -0.0079   0.0484   0.01  560.8
1316 521040.003   35.160872464  139.613836836    69.8543   1   6   0.0851   0.1241   0.0000  -0.0847  -0.0749   0.0668   0.01  556.4
1316 521070.000   35.160872508  139.613836805    69.8657   1   6   0.0684   0.0966   0.0000  -0.0654  -0.0518   0.0673   0.01  554.2
1316 521100.000   35.160872514  139.613836852    69.8581   1   6   0.0697   0.0105   0.0000   0.0798  -0.0286  -0.0368   0.01  558.8
1316 521130.004   35.160872518  139.613836821    69.8477   1   6   0.1169   0.0000   0.0000   0.0474  -0.0333  -0.0702   0.01  546.0
1316 521160.004   35.160872542  139.613836818    69.8499   1   6   0.0000   0.0629   0.0597  -0.0774   0.0705  -0.0732   0.01  534.6
1316 521190.000   35.160872552  139.613836837    69.8454   1   6   0.0000   0.0000   0.0000  -0.0689  -0.0591   0.0237   0.01  530.6
1316 521220.004   35.160872541  139.613836782    69.8436   1   6   0.0846   0.0000   0.0000  -0.0961  -0.0510  -0.0418   0.01  522.4
1316 521250.000   35.160872533  139.613836777    69.8553   1   6   0.0534   0.0970   0.0809  -0.0820   0.0671  -0.0121   0.01  520.2
1316 521280.000   35.160872513  139.613836757    69.8584   1   6   0.0872   0.0000   0.0000  -0.0503   0.0303  -0.0760   0.01  523.4
1316 521310.004   35.160872483  139.613836767    69.8460   1   6   0.1550   0.0898   0.0338  -0.0992   0.0675  -0.0895   0.01  515.9
1316 521340.000   35.160872556  139.613836818    69.8592   1   6   0.1166   0.0495   0.0419  -0.1037   0.0555  -0.0640   0.01  507.8
1316 521370.000   35.160872506  139.613836777    69.8520   1   6   0.0000   0.0000   0.0756   0.1041   0.0794  -0.0713   0.01  505.5
1316 521400.004   35.160872521  139.613836792    69.8520   1   6   0.0868   0.0000   0.0533  -0.0877   0.0635  -0.0669   0.01  506.2
1316 521430.000   35.160872497  139.613836785    69.8494   1   6   0.0735   0.1395   0.0000  -0.1224   0.0227  -0.0553   0.01  510.8
1316 521460.000   35.160872512  139.613836796    69.8577   1   6   0.0190   0.0000   0.0000   0.0227  -0.0239   0.0149   0.01  518.7
1316 521490.004   35.160872437  139.613836817    69.8524   1   6   0.1711   0.1513   0.0000  -0.1531   0.0060  -0.0355   0.01  527.6
1316 521520.000   35.160872448  139.613836848    69.8508   1   6   0.0000   0.0882   0.0645  -0.0489   0.0499   0.0242   0.01  530.9
1316 521550.000   35.160872407  139.613836824    69.8409   1   6   0.0576   0.0000   0.0229  -0.0524  -0.0435   0.0659   0.01  527.0
1316 521580.004   35.160872457  139.613836848    69.8472   1   6   0.0000   0.0802   0.0471   0.0550   0.0406  -0.0234   0.01  530.0
1316 521610.000   35.160872492  139.613836825    69.8513   1   6   0.0000   0.0000   0.0000   0.1027  -0.0762   0.0488   0.01  536.2
1316 521640.004   35.160872521  139.613836828    69.8607   1   6   0.1291   0.0000   0.0000   0.0338  -0.0134  -0.0408   0.01  543.2
1316 521670.004   35.160872522  139.613836826    69.8612   1   6   0.0000   0.0912   0.0335   0.0836  -0.0264   0.0519   0.01  542.5
1316 521700.004   35.160872542  139.613836835    69.8545   1   6   0.0000   0.0000   0.0126   0.0389  -0.0384   0.0539   0.01  543.3
1316 521730.004   35.160872582  139.613836849    69.8704   1   6   0.1394   0.1146   0.0000  -0.1117  -0.0825   0.0400   0.01  547.5
1316 521760.000   35.160872499  139.613836825    69.8719   1   6   0.0994   0.0000   0.0000   0.0595  -0.0298  -0.0481   0.01  551.2
1316 521790.004   35.160872533  139.613836794    69.8551   1   6   0.0000   0.0000   0.0000   0.0724  -0.0080  -0.0280   0.01  552.1
1316 521820.005   35.160872758  139.613836745    69.9286   1   5   0.0355   0.1220   0.1004  -0.0639  -0.0506   0.0813   0.01  999.9
1316 521850.000   35.160872869  139.613836797    69.9419   1   5   0.0000   0.0985   0.1029  -0.0650  -0.0521   0.0718   0.01  999.9
1316 521880.000   35.160872785  139.613836782    69.9027   1   5   0.1326   0.0832   0.1294  -0.1302  -0.0024   0.0720   0.01  999.9
1316 521910.000   35.160872907  139.613836735    69.9562   1   5   0.1059   0.0000   0.1248   0.0455  -0.0607   0.0822   0.01  999.9
1316 521940.005   35.160872806  139.613836767    69.9181   1   5   0.0852   0.0646   0.1517  -0.0486  -0.0560   0.1043   0.01  999.9
1316 521970.000   35.160872701  139.613836820    69.8801   1   5   0.1401   0.0000   0.1704   0.0435  -0.0443   0.1013   0.01  999.9
