% program   : rnx2rtkp ver.EX 2.5.0
% inp file  : ../rinex/07590920.05o
% inp file  : ../rinex/30400920.05n
% inp file  : ../rinex/30400920.05o
% obs start : 2005/04/02 00:00:00.0 GPST (week1316 518400.0s)
% obs end   : 2005/04/02 00:59:30.0 GPST (week1316 521970.0s)
% ref pos   :  -3978241.9580   3382840.2340   3649900.8530
%
% (x/y/z-ecef=WGS84,Q=1:fix,2:float,3:sbas,4:dgps,5:single,6:ppp,ns=# of satellites)
%  GPST                      x-ecef(m)      y-ecef(m)      z-ecef(m)   Q  ns   sdx(m)   sdy(m)   sdz(m)  sdxy(m)  sdyz(m)  sdzx(m) age(s)  ratio
2005/04/02 00:00:00.000  -3976219.1757   3382372.3082   3652511.5164   2   7   3.3294   3.7332   2.8564  -3.1616   2.5429  -2.3685   0.00    0.0
2005/04/02 00:00:30.000  -3976218.9704   3382371.7999   3652511.2543   2   7   1.7100   1.6921   1.4556  -1.2570   0.9831  -0.9608   0.00    0.0
2005/04/02 00:01:00.000  -3976219.1843   3382371.6051   3652511.1385   1   7  31.4130   0.0000  30.9202 -62.5140  62.0920  27.7515   0.00    7.7
2005/04/02 00:01:30.000  -3976219.1525   3382371.7980   3652511.1052   2   7   0.9244   0.4196   0.6135  -0.4525   0.4313  -0.0731   0.00    0.0
2005/04/02 00:02:00.000  -3976219.1301   3382371.7514   3652511.1098   2   7   0.7914   0.5476   0.4590   0.2707   0.2154  -0.2298   0.00    0.0
2005/04/02 00:02:30.000  -3976219.0566   3382371.7058   3652511.0969   2   7   0.6918   0.4012   0.3526   0.2451   0.1438  -0.1762   0.00    0.0
2005/04/02 00:03:00.000  -3976219.1890   3382371.6081   3652511.1434   1   7   0.1339   0.0000   0.0000   0.0450   0.1495  -0.0857   0.00   15.3
2005/04/02 00:03:30.000  -3976219.1937   3382371.6142   3652511.1464   1   7   0.0000   0.4219   0.0000  -0.2037  -0.4560  -0.3078   0.00   18.9
2005/04/02 00:04:00.000  -3976219.1901   3382371.6120   3652511.1495   1   7   0.0000   0.0000   0.1060   0.0550   0.0613  -0.0818   0.00   16.2
2005/04/02 00:04:30.000  -3976219.1861   3382371.6006   3652511.1425   1   7   0.0000   0.0000   0.0336  -0.0845  -0.0502   0.0702   0.00   12.8
2005/04/02 00:05:00.000  -3976219.1824   3382371.6035   3652511.1485   1   7   0.0401   0.0000   0.0000  -0.0659   0.0598  -0.0064   0.00   19.5
2005/04/02 00:05:30.000  -3976219.1927   3382371.6137   3652511.1568   1   7   0.0379   0.0778   0.0478   0.0743   0.0284   0.0141   0.00   29.1
2005/04/02 00:06:00.000  -3976219.1840   3382371.6065   3652511.1477   1   7   0.0000   0.0544   0.0731  -0.0279  -0.0565  -0.0113   0.00   33.9
2005/04/02 00:06:30.000  -3976219.1860   3382371.6056   3652511.1492   1   7   0.0485   0.0000   0.0000  -0.0481   0.0205   0.0347   0.00   27.8
2005/04/02 00:07:00.000  -3976219.1877   3382371.6111   3652511.1479   1   7   0.0000   0.0000   0.0396  -0.0431  -0.0145  -0.0169   0.00   24.7
2005/04/02 00:07:30.000  -3976219.1845   3382371.6066   3652511.1476   1   7   0.0584   0.0458   0.0000   0.0592   0.0476  -0.0393   0.00   17.8
2005/04/02 00:08:00.000  -3976219.1859   3382371.6060   3652511.1445   1   7   0.0360   0.0000   0.0235  -0.0150   0.0143  -0.0343   0.00   23.7
2005/04/02 00:08:30.000  -3976219.1873   3382371.6125   3652511.1437   1   7   0.0000   0.0444   0.0000   0.0422   0.0222  -0.0178   0.00   41.4
2005/04/02 00:09:00.000  -3976219.1887   3382371.6095   3652511.1402   1   7   0.0224   0.0000   0.0000   0.0488   0.0681  -0.0156   0.00   42.1
2005/04/02 00:09:30.000  -3976219.1798   3382371.5967   3652511.1336   1   7   0.0000   0.0409   0.0232  -0.0154  -0.0375  -0.0364   0.00   26.5
2005/04/02 00:10:00.000  -3976219.1870   3382371.6060   3652511.1428   1   7   0.0181   0.0000   0.0000  -0.0335   0.0489  -0.0409   0.00   27.4
2005/04/02 00:10:30.000  -3976219.1807   3382371.6030   3652511.1408   1   7   0.0000   0.0000   0.0000  -0.0561   0.0337  -0.0257   0.00   47.1
2005/04/02 00:11:00.000  -3976219.1855   3382371.6048   3652511.1407   1   7   0.0000   0.0000   0.0544  -0.0632  -0.0452   0.0393   0.00   67.1
2005/04/02 00:11:30.000  -3976219.1818   3382371.5995   3652511.1406   1   7   0.0267   0.0883   0.0593   0.0615  -0.0524  -0.0380   0.00   72.1
2005/04/02 00:12:00.000  -3976219.1896   3382371.6073   3652511.1465   1   7   0.0306   0.0000   0.0000  -0.0278   0.0438  -0.0175   0.00   89.0
2005/04/02 00:12:30.000  -3976219.1801   3382371.5959   3652511.1409   1   7   0.0282   0.0424   0.0000   0.0411   0.0239  -0.0395   0.00   93.5
2005/04/02 00:13:00.000  -3976219.1864   3382371.6047   3652511.1475   1   7   0.0435   0.0216   0.0448   0.0175   0.0165  -0.0207   0.00  354.0
2005/04/02 00:13:30.000  -3976219.1843   3382371.6069   3652511.1469   1   7   0.0000   0.0273   0.0000   0.0331   0.0305  -0.0366   0.00  558.2
2005/04/02 00:14:00.001  -3976219.1913   3382371.6138   3652511.1513   1   7   0.0000   0.0541   0.0686   0.0243  -0.0418  -0.0353   0.00  684.3
2005/04/02 00:14:30.001  -3976219.1868   3382371.6063   3652511.1491   1   7   0.0585   0.0429   0.0000   0.0394   0.0183  -0.0337   0.00  696.4
2005/04/02 00:15:00.000  -3976219.1887   3382371.6068   3652511.1443   1   7   0.0000   0.0231   0.0000   0.0287   0.0281   0.0286   0.00  830.3
2005/04/02 00:15:30.001  -3976219.1886   3382371.6084   3652511.1450   1   7   0.0121   0.0835   0.0279   0.0562  -0.0517   0.0238   0.00  881.1
2005/04/02 00:16:00.000  -3976219.1856   3382371.6033   3652511.1426   1   7   0.0000   0.0438   0.0415   0.0253  -0.0268  -0.0462   0.00  999.9
2005/04/02 00:16:30.001  -3976219.1913   3382371.6076   3652511.1489   1   7   0.0000   0.0000   0.0000  -0.0740  -0.0458   0.0225   0.00  998.8
2005/04/02 00:17:00.001  -3976219.1886   3382371.6063   3652511.1458   1   7   0.0431   0.0311   0.0000   0.0450   0.0404  -0.0223   0.00  999.9
2005/04/02 00:17:30.000  -3976219.1904   3382371.6055   3652511.1433   1   7   0.0000   0.0000   0.0000   0.0369   0.0482   0.0325   0.00  999.9
2005/04/02 00:18:00.001  -3976219.1913   3382371.6066   3652511.1464   1   6   0.0362   0.0000   0.0000   0.0209   0.0611  -0.0454   0.00  999.9
2005/04/02 00:18:30.000  -3976219.1898   3382371.6041   3652511.1444   1   6   0.0653   0.0000   0.0000   0.0146   0.0423  -0.0521   0.00  999.9
2005/04/02 00:19:00.000  -3976219.1955   3382371.6087   3652511.1481   1   6   0.0000   0.0496   0.0000   0.0291  -0.0310  -0.0430   0.00  999.9
2005/04/02 00:19:30.001  -3976219.1876   3382371.6032   3652511.1415   1   6   0.0000   0.0264   0.0408  -0.0471  -0.0513  -0.0019   0.00  999.9
2005/04/02 00:20:00.001  -3976219.1945   3382371.6119   3652511.1487   1   6   0.0000   0.0362   0.0000  -0.0077  -0.0299   0.0305   0.00  999.9
2005/04/02 00:20:30.001  -3976219.1862   3382371.6055   3652511.1427   1   6   0.0000   0.0000   0.0000  -0.0687  -0.0185  -0.0300   0.00  999.9
2005/04/02 00:21:00.001  -3976219.1898   3382371.6050   3652511.1457   1   6   0.0000   0.0000   0.0478  -0.0778  -0.0654   0.0229   0.00  999.9
2005/04/02 00:21:30.002  -3976219.1862   3382371.6065   3652511.1478   1   6   0.0608   0.0785   0.0000   0.0644  -0.0286  -0.0147   0.00  999.9
2005/04/02 00:22:00.000  -3976219.1916   3382371.6113   3652511.1490   1   6   0.0313   0.0130   0.0000   0.0393   0.0434   0.0167   0.00  999.9
2005/04/02 00:22:30.000  -3976219.1908   3382371.6115   3652511.1456   1   6   0.0000   0.0682   0.0000   0.0332  -0.0521  -0.0260   0.00  999.9
2005/04/02 00:23:00.002  -3976219.1869   3382371.6060   3652511.1436   1   6   0.0663   0.0316   0.0000   0.0362   0.0299   0.0263   0.00  999.9
2005/04/02 00:23:30.000  -3976219.1915   3382371.6093   3652511.1501   1   6   0.0000   0.0188   0.0452   0.0331   0.0352   0.0150   0.00  999.9
2005/04/02 00:24:00.002  -3976219.1813   3382371.5963   3652511.1409   1   6   0.0261   0.0480   0.0276   0.0508   0.0324  -0.0103   0.00  999.9
2005/04/02 00:24:30.000  -3976219.1873   3382371.6014   3652511.1450   1   6   0.0146   0.0471   0.0232   0.0076  -0.0403  -0.0469   0.00  999.9
2005/04/02 00:25:00.000  -3976219.1860   3382371.6040   3652511.1423   1   6   0.0726   0.0000   0.0391   0.0259   0.0458  -0.0432   0.00  999.9
2005/04/02 00:25:30.000  -3976219.1877   3382371.6044   3652511.1461   1   6   0.0000   0.0000   0.0000  -0.0244   0.0436   0.0277   0.00  999.9
2005/04/02 00:26:00.002  -3976219.1897   3382371.6038   3652511.1439   1   6   0.0404   0.0401   0.0195   0.0606   0.0530   0.0322   0.00  999.9
2005/04/02 00:26:30.000  -3976219.1929   3382371.6018   3652511.1439   1   6   0.0112   0.0670   0.0395   0.0537  -0.0256  -0.0329   0.00  999.9
2005/04/02 00:27:00.000  -3976219.1914   3382371.6067   3652511.1473   1   6   0.0516   0.0709   0.0380   0.0535  -0.0341  -0.0241   0.00  999.9
2005/04/02 00:27:30.000  -3976219.1923   3382371.6063   3652511.1471   1   6   0.0000   0.0000   0.0316   0.0097   0.0522  -0.0386   0.00  999.9
2005/04/02 00:28:00.002  -3976219.1901   3382371.6072   3652511.1479   1   6   0.0000   0.0501   0.0000  -0.0331  -0.0564  -0.0387   0.00  999.9
2005/04/02 00:28:30.002  -3976219.1884   3382371.6060   3652511.1452   1   6   0.0000   0.0000   0.0269  -0.0337   0.0119  -0.0423   0.00  999.9
2005/04/02 00:29:00.002  -3976219.1869   3382371.6039   3652511.1425   1   6   0.0000   0.0000   0.0000   0.0457   0.0542  -0.0603   0.00  999.9
2005/04/02 00:29:30.002  -3976219.1882   3382371.6048   3652511.1415   1   6   0.0759   0.0000   0.0591   0.0313   0.0477   0.0761   0.00  999.9
2005/04/02 00:30:00.000  -3976219.1936   3382371.6079   3652511.1534   1   6   0.0000   0.0000   0.0000  -0.0346  -0.0189  -0.0692   0.00  999.9
2005/04/02 00:30:30.002  -3976219.1882   3382371.6040   3652511.1445   1   6   0.0000   0.0000   0.0000  -0.0296  -0.0204  -0.0400   0.00  999.9
2005/04/02 00:31:00.002  -3976219.1941   3382371.6058   3652511.1471   1   6   0.0724   0.0000   0.0665  -0.0218   0.0120   0.0617   0.00  999.9
2005/04/02 00:31:30.000  -3976219.1868   3382371.6028   3652511.1418   1   6   0.1010   0.0000   0.0886   0.0318   0.0382   0.1056   0.00  999.9
2005/04/02 00:32:00.000  -3976219.1850   3382371.5959   3652511.1459   1   6   0.0000   0.0093   0.0000   0.0151   0.0231   0.0224   0.00  999.9
2005/04/02 00:32:30.002  -3976219.1851   3382371.6007   3652511.1452   1   6   0.0000   0.0541   0.0097   0.0431  -0.0175  -0.0162   0.00  999.9
2005/04/02 00:33:00.003  -3976219.1939   3382371.6086   3652511.1436   1   6   0.0528   0.0000   0.0368   0.0237   0.0380   0.0129   0.00  999.9
2005/04/02 00:33:30.000  -3976219.1904   3382371.6020   3652511.1469   1   6   0.0000   0.0000   0.0000  -0.0233   0.0346  -0.0788   0.00  999.9
2005/04/02 00:34:00.003  -3976219.1894   3382371.6078   3652511.1499   1   6   0.0000   0.0000   0.0000  -0.0580  -0.0430  -0.0597   0.00  999.9
2005/04/02 00:34:30.003  -3976219.1848   3382371.5993   3652511.1432   1   6   0.0000   0.0476   0.0000   0.0367  -0.0162  -0.0417   0.00  999.9
2005/04/02 00:35:00.003  -3976219.1900   3382371.6062   3652511.1495   1   6   0.0674   0.0214   0.0114  -0.0444  -0.0467   0.0585   0.00  999.9
2005/04/02 00:35:30.000  -3976219.1809   3382371.5965   3652511.1409   1   6   0.0955   0.0000   0.0367  -0.0191   0.0117   0.0593   0.00  999.9
2005/04/02 00:36:00.000  -3976219.1924   3382371.6018   3652511.1523   1   6   0.0000   0.0483   0.0414   0.0488   0.0281  -0.0398   0.00  999.9
2005/04/02 00:36:30.003  -3976219.1847   3382371.5980   3652511.1429   1   6   0.0000   0.0000   0.0000  -0.0796  -0.0523  -0.0719   0.01  999.9
2005/04/02 00:37:00.003  -3976219.1872   3382371.6033   3652511.1474   1   6   0.0506   0.0448   0.0553   0.0505   0.0357   0.0534   0.01  999.9
2005/04/02 00:37:30.000  -3976219.1886   3382371.6046   3652511.1430   1   6   0.0561   0.0343   0.0391   0.0398   0.0312   0.0357   0.01  999.9
2005/04/02 00:38:00.000  -3976219.1907   3382371.6054   3652511.1445   1   6   0.0000   0.0339   0.0000   0.0145  -0.0217  -0.0737   0.01  999.9
2005/04/02 00:38:30.003  -3976219.1917   3382371.6042   3652511.1440   1   6   0.0000   0.0000   0.0000  -0.0606  -0.0327  -0.0652   0.01  999.9
2005/04/02 00:39:00.003  -3976219.1896   3382371.6090   3652511.1419   1   6   0.0000   0.0000   0.0000  -0.0603  -0.0170  -0.0616   0.01  999.9
2005/04/02 00:39:30.003  -3976219.1859   3382371.6049   3652511.1386   1   6   0.0662   0.0502   0.0226   0.0717   0.0598  -0.0620   0.01  999.9
2005/04/02 00:40:00.000  -3976219.1863   3382371.6048   3652511.1485   1   6   0.0896   0.0465   0.0267   0.0404   0.0108   0.0292   0.01  999.9
2005/04/02 00:40:30.000  -3976219.1904   3382371.6028   3652511.1493   1   6   0.0000   0.0000   0.0000  -0.0304   0.0031  -0.0559   0.01  999.9
2005/04/02 00:41:00.003  -3976219.1879   3382371.6025   3652511.1396   1   6   0.0000   0.0010   0.0394  -0.0284  -0.0225   0.0428   0.01  999.9
2005/04/02 00:41:30.003  -3976219.1857   3382371.6014   3652511.1439   1   6   0.0391   0.0503   0.0000   0.0617   0.0463  -0.0418   0.01  999.9
2005/04/02 00:42:00.000  -3976219.1961   3382371.6133   3652511.1446   1   6   0.0000   0.0159   0.0122  -0.0361  -0.0356   0.0086   0.01  999.9
2005/04/02 00:42:30.003  -3976219.1916   3382371.6078   3652511.1399   1   6   0.0000   0.0000   0.0239  -0.0481  -0.0198  -0.0398   0.01  999.9
2005/04/02 00:43:00.003  -3976219.1901   3382371.6084   3652511.1379   1   6   0.0517   0.0401   0.0415   0.0333   0.0098   0.0519   0.01  999.9
2005/04/02 00:43:30.000  -3976219.1868   3382371.6089   3652511.1340   1   6   0.0543   0.0115   0.0000  -0.0275  -0.0239  -0.0138   0.01  999.9
2005/04/02 00:44:00.000  -3976219.1863   3382371.6045   3652511.1366   1   6   0.0000   0.0000   0.0000  -0.0445  -0.0310   0.0153   0.01  999.9
2005/04/02 00:44:30.003  -3976219.1908   3382371.6109   3652511.1469   1   6   0.0000   0.0000   0.0160  -0.0569  -0.0423  -0.0388   0.01  999.9
2005/04/02 00:45:00.004  -3976219.1886   3382371.6024   3652511.1420   1   6   0.0000   0.0297   0.0179   0.0437   0.0401  -0.0267   0.01  999.9
2005/04/02 00:45:30.004  -3976219.1832   3382371.6023   3652511.1442   1   6   0.0758   0.0466   0.0171   0.0334  -0.0206   0.0408   0.01  999.9
2005/04/02 00:46:00.000  -3976219.1822   3382371.6030   3652511.1459   1   6   0.0572   0.0000   0.0492  -0.0403  -0.0108   0.0213   0.01  999.9
2005/04/02 00:46:30.000  -3976219.1794   3382371.5981   3652511.1438   1   6   0.0588   0.0329   0.0067   0.0313   0.0211   0.0151   0.01  999.9
2005/04/02 00:47:00.000  -3976219.1772   3382371.6034   3652511.1424   1   6   0.0000   0.0220   0.0000  -0.0290  -0.0312  -0.0580   0.01  999.9
2005/04/02 00:47:30.004  -3976219.1835   3382371.6081   3652511.1484   1   6   0.0000   0.0667   0.0000   0.0816   0.0588  -0.0428   0.01  999.9
2005/04/02 00:48:00.004  -3976219.1814   3382371.6095   3652511.1428   1   6   0.0000   0.0205   0.0420  -0.0182  -0.0190   0.0369   0.01  999.9
2005/04/02 00:48:30.004  -3976219.1810   3382371.6063   3652511.1403   1   6   0.0000   0.0010   0.0310  -0.0392  -0.0356   0.0109   0.01  999.9
2005/04/02 00:49:00.004  -3976219.1883   3382371.6065   3652511.1534   1   6   0.0660   0.0534   0.0534   0.0749   0.0615   0.0591   0.01  999.9
2005/04/02 00:49:30.000  -3976219.1844   3382371.6084   3652511.1434   1   6   0.0000   0.0000   0.0000   0.0133   0.0292  -0.0389   0.01  999.9
2005/04/02 00:50:00.004  -3976219.1819   3382371.6039   3652511.1406   1   6   0.0816   0.0445   0.0578   0.0467   0.0304   0.0806   0.01  999.9
2005/04/02 00:50:30.000  -3976219.1777   3382371.6029   3652511.1374   1   6   0.0325   0.0371   0.0078   0.0549   0.0487  -0.0302   0.01  999.9
2005/04/02 00:51:00.000  -3976219.1853   3382371.6058   3652511.1437   1   6   0.0000   0.0000   0.0000  -0.0416   0.0261  -0.0660   0.01  999.9
2005/04/02 00:51:30.004  -3976219.1836   3382371.6022   3652511.1313   1   6   0.0497   0.0000   0.0301   0.0166   0.0365  -0.0294   0.01  999.9
2005/04/02 00:52:00.000  -3976219.1873   3382371.6027   3652511.1381   1   6   0.0338   0.0344   0.0213   0.0445   0.0378   0.0346   0.01  999.9
2005/04/02 00:52:30.000  -3976219.1831   3382371.6013   3652511.1302   1   6   0.0000   0.0763   0.0142   0.0716   0.0243  -0.0231   0.01  999.9
2005/04/02 00:53:00.004  -3976219.1813   3382371.5989   3652511.1302   1   6   0.0293   0.0086   0.0482   0.0450   0.0500   0.0432   0.01  999.9
2005/04/02 00:53:30.000  -3976219.1846   3382371.6019   3652511.1374   1   6   0.0000   0.0096   0.0000  -0.0345  -0.0310  -0.0431   0.01  999.9
2005/04/02 00:54:00.004  -3976219.1884   3382371.6036   3652511.1428   1   6   0.0406   0.0288   0.0193   0.0389   0.0356  -0.0269   0.01  999.9
2005/04/02 00:54:30.000  -3976219.1847   3382371.6030   3652511.1434   1   6   0.0160   0.0432   0.0246   0.0284  -0.0208  -0.0211   0.01  999.9
2005/04/02 00:55:00.000  -3976219.1807   3382371.5986   3652511.1409   1   6   0.0000   0.0213   0.0219   0.0401   0.0414  -0.0052   0.01  999.9
2005/04/02 00:55:30.004  -3976219.1876   3382371.6019   3652511.1510   1   6   0.0545   0.0185   0.0173  -0.0428  -0.0432  -0.0431   0.01  999.9
2005/04/02 00:56:00.000  -3976219.1916   3382371.6083   3652511.1449   1   6   0.0000   0.0000   0.0000  -0.0609  -0.0485  -0.0503   0.01  999.9
2005/04/02 00:56:30.004  -3976219.1827   3382371.6066   3652511.1419   1   6   0.0260   0.0263   0.0000  -0.0352  -0.0393  -0.0438   0.01  999.9
2005/04/02 00:57:00.000  -3976219.2203   3382371.6433   3652511.2203   1   5   0.0971   0.0632   0.1358  -0.0643   0.0930  -0.0797   0.01  999.9
2005/04/02 00:57:30.000  -3976219.2277   3382371.6448   3652511.2441   1   5   0.0278   0.0776   0.1420  -0.0611   0.1022  -0.1096   0.01  999.9
2005/04/02 00:58:00.000  -3976219.2164   3382371.6385   3652511.2330   1   5   0.0905   0.0419   0.1597  -0.1070   0.1011  -0.1010   0.01  999.9
2005/04/02 00:58:30.000  -3976219.2384   3382371.6615   3652511.2695   1   5   0.0822   0.0803   0.1764  -0.0900   0.1221  -0.1197   0.01  999.9
2005/04/02 00:59:00.000  -3976219.2188   3382371.6406   3652511.2308   1   5   0.0919   0.0953   0.1962  -0.0943   0.1362  -0.1407   0.01  999.9
2005/04/02 00:59:30.000  -3976219.2087   3382371.6270   3652511.2128   1   5   0.1171   0.1057   0.2212  -0.1028   0.1533  -0.1445   0.01  999.9
