$GPRMC,235947.00,A,3509.6524792,N,13936.8296999,E,0.00,0.00,010405,0.0,E,A,V*45
$GPGGA,235947.00,3509.6524792,N,13936.8296999,E,1,07,1.0,34.033,M,36.478,M,0.0,0000*77
$GPGST,235947.00,0.000,3.3542,2.5418,18.221,3.2837,2.6323,7.2852*59
$GPRMC,000017.00,A,3509.6525097,N,13936.8298473,E,0.00,0.00,020405,0.0,E,A,V*4A
$GPGGA,000017.00,3509.6525097,N,13936.8298473,E,1,07,1.0,33.632,M,36.478,M,0.0,0000*7B
$GPGST,000017.00,0.000,3.3605,2.5408,18.003,3.2910,2.6302,7.2808*5A
$GPRMC,000047.00,A,3509.6524478,N,13936.8299203,E,0.00,0.00,020405,0.0,E,A,V*4B
$GPGGA,000047.00,3509.6524478,N,13936.8299203,E,1,07,1.0,33.420,M,36.478,M,0.0,0000*7B
$GPGST,000047.00,0.000,3.3668,2.5398,17.787,3.2984,2.6280,7.2760*59
$GPRMC,000117.00,A,3509.6522819,N,13936.8298471,E,0.00,0.00,020405,0.0,E,A,V*40
$GPGGA,000117.00,3509.6522819,N,13936.8298471,E,1,07,1.0,34.145,M,36.478,M,0.0,0000*71
$GPGST,000117.00,0.000,3.3731,2.5389,17.574,3.3058,2.6259,7.2707*52
$GPRMC,000147.00,A,3509.6522383,N,13936.8298916,E,0.00,0.00,020405,0.0,E,A,V*41
$GPGGA,000147.00,3509.6522383,N,13936.8298916,E,1,07,1.0,33.133,M,36.478,M,0.0,0000*76
$GPGST,000147.00,0.000,3.3796,2.5379,17.362,3.3133,2.6238,7.2650*5C
$GPRMC,000217.00,A,3509.6523838,N,13936.8296902,E,0.00,0.00,020405,0.0,E,A,V*46
$GPGGA,000217.00,3509.6523838,N,13936.8296902,E,1,07,1.0,34.240,M,36.478,M,0.0,0000*71
$GPGST,000217.00,0.000,3.3861,2.5369,17.153,3.3209,2.6217,7.2589*5C
$GPRMC,000247.00,A,3509.6524429,N,13936.8299325,E,0.00,0.00,020405,0.0,E,A,V*48
$GPGGA,000247.00,3509.6524429,N,13936.8299325,E,1,07,1.0,34.019,M,36.478,M,0.0,0000*71
$GPGST,000247.00,0.000,3.3928,2.5360,16.946,3.3286,2.6197,7.2524*5A
$GPRMC,000317.00,A,3509.6523972,N,13936.8300858,E,0.00,0.00,020405,0.0,E,A,V*48
$GPGGA,000317.00,3509.6523972,N,13936.8300858,E,1,07,1.0,33.540,M,36.478,M,0.0,0000*7F
$GPGST,000317.00,0.000,3.3995,2.5350,16.741,3.3363,2.6176,7.2455*50
$GPRMC,000347.00,A,3509.6522896,N,13936.8298878,E,0.00,0.00,020405,0.0,E,A,V*45
$GPGGA,000347.00,3509.6522896,N,13936.8298878,E,1,07,1.0,34.399,M,36.478,M,0.0,0000*77
$GPGST,000347.00,0.000,3.4063,2.5341,16.539,3.3441,2.6156,7.2382*57
$GPRMC,000417.00,A,3509.6525290,N,13936.8298518,E,0.00,0.00,020405,0.0,E,A,V*47
$GPGGA,000417.00,3509.6525290,N,13936.8298518,E,1,07,1.0,33.856,M,36.478,M,0.0,0000*7A
$GPGST,000417.00,0.000,3.4132,2.5332,16.338,3.3520,2.6136,7.2306*5F
$GPRMC,000447.00,A,3509.6526863,N,13936.8300130,E,0.00,0.00,020405,0.0,E,A,V*49
$GPGGA,000447.00,3509.6526863,N,13936.8300130,E,1,07,1.0,33.815,M,36.478,M,0.0,0000*73
$GPGST,000447.00,0.000,3.4202,2.5323,16.141,3.3599,2.6117,7.2226*54
$GPRMC,000517.00,A,3509.6523331,N,13936.8299013,E,0.00,0.00,020405,0.0,E,A,V*45
$GPGGA,000517.00,3509.6523331,N,13936.8299013,E,1,07,1.0,33.385,M,36.478,M,0.0,0000*7D
$GPGST,000517.00,0.000,3.4272,2.5314,15.945,3.3679,2.6097,7.2142*59
$GPRMC,000547.00,A,3509.6525359,N,13936.8298868,E,0.00,0.00,020405,0.0,E,A,V*4D
$GPGGA,000547.00,3509.6525359,N,13936.8298868,E,1,07,1.0,33.378,M,36.478,M,0.0,0000*77
$GPGST,000547.00,0.000,3.4344,2.5305,15.752,3.3760,2.6078,7.2056*5C
$GPRMC,000617.00,A,3509.6522589,N,13936.8299817,E,0.00,0.00,020405,0.0,E,A,V*4E
$GPGGA,000617.00,3509.6522589,N,13936.8299817,E,1,07,1.0,34.113,M,36.478,M,0.0,0000*7C
$GPGST,000617.00,0.000,3.4416,2.5297,15.562,3.3842,2.6060,7.1966*5E
$GPRMC,000647.00,A,3509.6523167,N,13936.8300619,E,0.00,0.00,020405,0.0,E,A,V*4F
$GPGGA,000647.00,3509.6523167,N,13936.8300619,E,1,07,1.0,33.761,M,36.478,M,0.0,0000*79
$GPGST,000647.00,0.000,3.4489,2.5288,15.374,3.3924,2.6042,7.1873*56
$GPRMC,000717.00,A,3509.6522237,N,13936.8300141,E,0.00,0.00,020405,0.0,E,A,V*46
$GPGGA,000717.00,3509.6522237,N,13936.8300141,E,1,07,1.0,34.007,M,36.478,M,0.0,0000*70
$GPGST,000717.00,0.000,3.4563,2.5280,15.188,3.4007,2.6024,7.1778*55
$GPRMC,000747.00,A,3509.6525321,N,13936.8299243,E,0.00,0.00,020405,0.0,E,A,V*42
$GPGGA,000747.00,3509.6525321,N,13936.8299243,E,1,07,1.0,34.102,M,36.478,M,0.0,0000*70
$GPGST,000747.00,0.000,3.4638,2.5273,15.005,3.4091,2.6006,7.1680*5C
$GPRMC,000817.00,A,3509.6524674,N,13936.8300626,E,0.00,0.00,020405,0.0,E,A,V*4A
$GPGGA,000817.00,3509.6524674,N,13936.8300626,E,1,07,1.0,33.541,M,36.478,M,0.0,0000*7C
$GPGST,000817.00,0.000,3.4714,2.5265,14.824,3.4176,2.5989,7.1579*54
$GPRMC,000847.00,A,3509.6523559,N,13936.8300768,E,0.00,0.00,020405,0.0,E,A,V*4F
$GPGGA,000847.00,3509.6523559,N,13936.8300768,E,1,07,1.0,33.760,M,36.478,M,0.0,0000*78
$GPGST,000847.00,0.000,3.4791,2.5258,14.645,3.4261,2.5973,7.1475*56
$GPRMC,000917.00,A,3509.6523479,N,13936.8300036,E,0.00,0.00,020405,0.0,E,A,V*44
$GPGGA,000917.00,3509.6523479,N,13936.8300036,E,1,07,1.0,33.544,M,36.478,M,0.0,0000*77
$GPGST,000917.00,0.000,3.4869,2.5251,14.469,3.4347,2.5956,7.1370*5F
$GPRMC,000947.00,A,3509.6524149,N,13936.8299942,E,0.00,0.00,020405,0.0,E,A,V*4B
$GPGGA,000947.00,3509.6524149,N,13936.8299942,E,1,07,1.0,33.492,M,36.478,M,0.0,0000*72
$GPGST,000947.00,0.000,3.4947,2.5245,14.295,3.4434,2.5941,7.1262*50
$GPRMC,001017.00,A,3509.6524794,N,13936.8299485,E,0.00,0.00,020405,0.0,E,A,V*46
$GPGGA,001017.00,3509.6524794,N,13936.8299485,E,1,07,1.0,33.567,M,36.478,M,0.0,0000*74
$GPGST,001017.00,0.000,3.5026,2.5239,14.124,3.4521,2.5925,7.1152*57
$GPRMC,001047.00,A,3509.6522999,N,13936.8300405,E,0.00,0.00,020405,0.0,E,A,V*4F
$GPGGA,001047.00,3509.6522999,N,13936.8300405,E,1,07,1.0,33.190,M,36.478,M,0.0,0000*71
$GPGST,001047.00,0.000,3.5107,2.5233,13.955,3.4610,2.5911,7.1040*57
$GPRMC,001117.00,A,3509.6524423,N,13936.8300515,E,0.00,0.00,020405,0.0,E,A,V*41
$GPGGA,001117.00,3509.6524423,N,13936.8300515,E,1,07,1.0,32.729,M,36.478,M,0.0,0000*7A
$GPGST,001117.00,0.000,3.5188,2.5228,13.788,3.4699,2.5896,7.0927*56
$GPRMC,001147.00,A,3509.6522233,N,13936.8299628,E,0.00,0.00,020405,0.0,E,A,V*49
$GPGGA,001147.00,3509.6522233,N,13936.8299628,E,1,07,1.0,34.569,M,36.478,M,0.0,0000*72
$GPGST,001147.00,0.000,3.5270,2.5223,13.624,3.4788,2.5883,7.0812*59
$GPRMC,001217.00,A,3509.6521692,N,13936.8301195,E,0.00,0.00,020405,0.0,E,A,V*42
$GPGGA,001217.00,3509.6521692,N,13936.8301195,E,1,07,1.0,33.563,M,36.478,M,0.0,0000*74
$GPGST,001217.00,0.000,3.5353,2.5218,13.462,3.4879,2.5869,7.0695*53
$GPRMC,001247.00,A,3509.6524745,N,13936.8297833,E,0.00,0.00,020405,0.0,E,A,V*42
$GPGGA,001247.00,3509.6524745,N,13936.8297833,E,1,07,1.0,33.667,M,36.478,M,0.0,0000*73
$GPGST,001247.00,0.000,3.5436,2.5214,13.302,3.4970,2.5857,7.0577*55
$GPRMC,001317.00,A,3509.6524243,N,13936.8300064,E,0.00,0.00,020405,0.0,E,A,V*40
$GPGGA,001317.00,3509.6524243,N,13936.8300064,E,1,07,1.0,33.000,M,36.478,M,0.0,0000*76
$GPGST,001317.00,0.000,3.5521,2.5211,13.144,3.5062,2.5845,7.0458*57
$GPRMC,001347.00,A,3509.6521677,N,13936.8300800,E,0.00,0.00,020405,0.0,E,A,V*49
$GPGGA,001347.00,3509.6521677,N,13936.8300800,E,1,07,1.0,32.822,M,36.478,M,0.0,0000*76
$GPGST,001347.00,0.000,3.5607,2.5207,12.989,3.5155,2.5833,7.0337*50
$GPRMC,001417.00,A,3509.6523175,N,13936.8300300,E,0.00,0.00,020405,0.0,E,A,V*47
$GPGGA,001417.00,3509.6523175,N,13936.8300300,E,1,07,1.0,33.185,M,36.478,M,0.0,0000*7D
$GPGST,001417.00,0.000,3.5693,2.5205,12.836,3.5249,2.5822,7.0216*54
$GPRMC,001447.00,A,3509.6523416,N,13936.8298551,E,0.00,0.00,020405,0.0,E,A,V*40
$GPGGA,001447.00,3509.6523416,N,13936.8298551,E,1,07,1.0,33.722,M,36.478,M,0.0,0000*71
$GPGST,001447.00,0.000,3.5780,2.5202,12.685,3.5343,2.5812,7.0094*53
$GPRMC,001517.00,A,3509.6522566,N,13936.8300214,E,0.00,0.00,020405,0.0,E,A,V*45
$GPGGA,001517.00,3509.6522566,N,13936.8300214,E,1,07,1.0,33.439,M,36.478,M,0.0,0000*7D
$GPGST,001517.00,0.000,3.5868,2.5201,12.536,3.5438,2.5802,6.9971*56
$GPRMC,001547.00,A,3509.6522459,N,13936.8299092,E,0.00,0.00,020405,0.0,E,A,V*40
$GPGGA,001547.00,3509.6522459,N,13936.8299092,E,1,07,1.0,33.274,M,36.478,M,0.0,0000*77
$GPGST,001547.00,0.000,3.5957,2.5199,12.389,3.5534,2.5793,6.9848*5F
$GPRMC,001617.00,A,3509.6522011,N,13936.8299955,E,0.00,0.00,020405,0.0,E,A,V*4C
$GPGGA,001617.00,3509.6522011,N,13936.8299955,E,1,07,1.0,33.770,M,36.478,M,0.0,0000*7A
$GPGST,001617.00,0.000,3.6047,2.5199,12.245,3.5630,2.5785,6.9724*56
$GPRMC,001647.00,A,3509.6522999,N,13936.8298369,E,0.00,0.00,020405,0.0,E,A,V*44
$GPGGA,001647.00,3509.6522999,N,13936.8298369,E,1,07,1.0,33.932,M,36.478,M,0.0,0000*7A
$GPGST,001647.00,0.000,3.6138,2.5198,12.102,3.5727,2.5777,6.9599*55
$GPRMC,001717.00,A,3509.6522492,N,13936.8300288,E,0.00,0.00,020405,0.0,E,A,V*48
$GPGGA,001717.00,3509.6522492,N,13936.8300288,E,1,07,1.0,33.175,M,36.478,M,0.0,0000*7D
$GPGST,001717.00,0.000,3.6229,2.5199,11.962,3.5825,2.5770,6.9474*56
$GPRMC,001747.00,A,3509.6525882,N,13936.8300711,E,0.00,0.00,020405,0.0,E,A,V*42
$GPGGA,001747.00,3509.6525882,N,13936.8300711,E,1,06,1.0,34.238,M,36.478,M,0.0,0000*7B
$GPGST,001747.00,0.000,4.1595,2.5341,15.429,4.0659,2.6818,8.1448*5E
$GPRMC,001817.00,A,3509.6524280,N,13936.8301944,E,0.00,0.00,020405,0.0,E,A,V*4E
$GPGGA,001817.00,3509.6524280,N,13936.8301944,E,1,06,1.0,34.329,M,36.478,M,0.0,0000*76
$GPGST,001817.00,0.000,4.1791,2.5346,15.325,4.0858,2.6824,8.1590*5A
$GPRMC,001847.00,A,3509.6525788,N,13936.8299786,E,0.00,0.00,020405,0.0,E,A,V*47
$GPGGA,001847.00,3509.6525788,N,13936.8299786,E,1,06,1.0,33.834,M,36.478,M,0.0,0000*7F
$GPGST,001847.00,0.000,4.1991,2.5351,15.224,4.1060,2.6831,8.1733*5A
$GPRMC,001917.00,A,3509.6524553,N,13936.8301225,E,0.00,0.00,020405,0.0,E,A,V*4A
$GPGGA,001917.00,3509.6524553,N,13936.8301225,E,1,06,1.0,33.932,M,36.478,M,0.0,0000*75
$GPGST,001917.00,0.000,4.2193,2.5356,15.127,4.1265,2.6840,8.1876*5F
$GPRMC,001947.00,A,3509.6524694,N,13936.8300609,E,0.00,0.00,020405,0.0,E,A,V*4C
$GPGGA,001947.00,3509.6524694,N,13936.8300609,E,1,06,1.0,34.704,M,36.478,M,0.0,0000*7F
$GPGST,001947.00,0.000,4.2398,2.5363,15.034,4.1472,2.6850,8.2021*5E
$GPRMC,002017.00,A,3509.6523275,N,13936.8300411,E,0.00,0.00,020405,0.0,E,A,V*44
$GPGGA,002017.00,3509.6523275,N,13936.8300411,E,1,06,1.0,34.279,M,36.478,M,0.0,0000*78
$GPGST,002017.00,0.000,4.2606,2.5370,14.943,4.1681,2.6861,8.2168*59
$GPRMC,002047.00,A,3509.6524051,N,13936.8299623,E,0.00,0.00,020405,0.0,E,A,V*40
$GPGGA,002047.00,3509.6524051,N,13936.8299623,E,1,06,1.0,34.656,M,36.478,M,0.0,0000*75
$GPGST,002047.00,0.000,4.2817,2.5378,14.856,4.1894,2.6874,8.2315*59
$GPRMC,002117.00,A,3509.6521689,N,13936.8301369,E,0.00,0.00,020405,0.0,E,A,V*49
$GPGGA,002117.00,3509.6521689,N,13936.8301369,E,1,06,1.0,34.191,M,36.478,M,0.0,0000*70
$GPGST,002117.00,0.000,4.3030,2.5386,14.772,4.2109,2.6888,8.2464*55
$GPRMC,002147.00,A,3509.6524090,N,13936.8301543,E,0.00,0.00,020405,0.0,E,A,V*49
$GPGGA,002147.00,3509.6524090,N,13936.8301543,E,1,06,1.0,34.339,M,36.478,M,0.0,0000*70
$GPGST,002147.00,0.000,4.3247,2.5396,14.691,4.2326,2.6903,8.2614*57
$GPRMC,002217.00,A,3509.6522710,N,13936.8299587,E,0.00,0.00,020405,0.0,E,A,V*4E
$GPGGA,002217.00,3509.6522710,N,13936.8299587,E,1,06,1.0,33.819,M,36.478,M,0.0,0000*79
$GPGST,002217.00,0.000,4.3466,2.5406,14.614,4.2546,2.6919,8.2765*5B
$GPRMC,002247.00,A,3509.6524230,N,13936.8301666,E,0.00,0.00,020405,0.0,E,A,V*46
$GPGGA,002247.00,3509.6524230,N,13936.8301666,E,1,06,1.0,32.805,M,36.478,M,0.0,0000*7D
$GPGST,002247.00,0.000,4.3688,2.5417,14.539,4.2768,2.6937,8.2917*59
$GPRMC,002317.00,A,3509.6525632,N,13936.8301887,E,0.00,0.00,020405,0.0,E,A,V*44
$GPGGA,002317.00,3509.6525632,N,13936.8301887,E,1,06,1.0,34.216,M,36.478,M,0.0,0000*71
$GPGST,002317.00,0.000,4.3913,2.5429,14.466,4.2993,2.6956,8.3071*53
$GPRMC,002347.00,A,3509.6522490,N,13936.8299840,E,0.00,0.00,020405,0.0,E,A,V*47
$GPGGA,002347.00,3509.6522490,N,13936.8299840,E,1,06,1.0,33.784,M,36.478,M,0.0,0000*7B
$GPGST,002347.00,0.000,4.4141,2.5442,14.397,4.3220,2.6976,8.3227*5B
$GPRMC,002417.00,A,3509.6524241,N,13936.8302137,E,0.00,0.00,020405,0.0,E,A,V*43
$GPGGA,002417.00,3509.6524241,N,13936.8302137,E,1,06,1.0,33.874,M,36.478,M,0.0,0000*7F
$GPGST,002417.00,0.000,4.4371,2.5455,14.330,4.3450,2.6998,8.3384*5A
$GPRMC,002447.00,A,3509.6524575,N,13936.8299921,E,0.00,0.00,020405,0.0,E,A,V*4A
$GPGGA,002447.00,3509.6524575,N,13936.8299921,E,1,06,1.0,32.785,M,36.478,M,0.0,0000*76
$GPGST,002447.00,0.000,4.4604,2.5469,14.266,4.3682,2.7021,8.3542*5E
$GPRMC,002517.00,A,3509.6523966,N,13936.8300717,E,0.00,0.00,020405,0.0,E,A,V*4D
$GPGGA,002517.00,3509.6523966,N,13936.8300717,E,1,06,1.0,33.857,M,36.478,M,0.0,0000*70
$GPGST,002517.00,0.000,4.4839,2.5485,14.204,4.3916,2.7045,8.3701*59
$GPRMC,002547.00,A,3509.6524250,N,13936.8301043,E,0.00,0.00,020405,0.0,E,A,V*46
$GPGGA,002547.00,3509.6524250,N,13936.8301043,E,1,06,1.0,32.987,M,36.478,M,0.0,0000*76
$GPGST,002547.00,0.000,4.5077,2.5501,14.145,4.4153,2.7070,8.3862*56
$GPRMC,002617.00,A,3509.6523429,N,13936.8301350,E,0.00,0.00,020405,0.0,E,A,V*4E
$GPGGA,002617.00,3509.6523429,N,13936.8301350,E,1,06,1.0,33.755,M,36.478,M,0.0,0000*7E
$GPGST,002617.00,0.000,4.5318,2.5517,14.088,4.4392,2.7097,8.4025*57
$GPRMC,002647.00,A,3509.6525096,N,13936.8301462,E,0.00,0.00,020405,0.0,E,A,V*4B
$GPGGA,002647.00,3509.6525096,N,13936.8301462,E,1,06,1.0,33.025,M,36.478,M,0.0,0000*7B
$GPGST,002647.00,0.000,4.5561,2.5535,14.034,4.4633,2.7125,8.4189*5C
$GPRMC,002717.00,A,3509.6524956,N,13936.8302187,E,0.00,0.00,020405,0.0,E,A,V*46
$GPGGA,002717.00,3509.6524956,N,13936.8302187,E,1,06,1.0,33.489,M,36.478,M,0.0,0000*74
$GPGST,002717.00,0.000,4.5806,2.5553,13.982,4.4876,2.7154,8.4354*5C
$GPRMC,002747.00,A,3509.6524557,N,13936.8302987,E,0.00,0.00,020405,0.0,E,A,V*46
$GPGGA,002747.00,3509.6524557,N,13936.8302987,E,1,06,1.0,33.983,M,36.478,M,0.0,0000*73
$GPGST,002747.00,0.000,4.6054,2.5573,13.932,4.5121,2.7185,8.4521*5E
$GPRMC,002817.00,A,3509.6524097,N,13936.8300221,E,0.00,0.00,020405,0.0,E,A,V*40
$GPGGA,002817.00,3509.6524097,N,13936.8300221,E,1,06,1.0,33.646,M,36.478,M,0.0,0000*73
$GPGST,002817.00,0.000,4.6303,2.5593,13.883,4.5368,2.7216,8.4689*57
$GPRMC,002847.00,A,3509.6524600,N,13936.8301595,E,0.00,0.00,020405,0.0,E,A,V*44
$GPGGA,002847.00,3509.6524600,N,13936.8301595,E,1,06,1.0,33.754,M,36.478,M,0.0,0000*75
$GPGST,002847.00,0.000,4.6555,2.5614,13.837,4.5617,2.7249,8.4859*50
$GPRMC,002917.00,A,3509.6524172,N,13936.8301488,E,0.00,0.00,020405,0.0,E,A,V*4F
$GPGGA,002917.00,3509.6524172,N,13936.8301488,E,1,06,1.0,31.882,M,36.478,M,0.0,0000*78
$GPGST,002917.00,0.000,4.6809,2.5636,13.793,4.5868,2.7284,8.5030*50
$GPRMC,002947.00,A,3509.6524357,N,13936.8301089,E,0.00,0.00,020405,0.0,E,A,V*4A
$GPGGA,002947.00,3509.6524357,N,13936.8301089,E,1,06,1.0,33.255,M,36.478,M,0.0,0000*7F
$GPGST,002947.00,0.000,4.7065,2.5659,13.751,4.6121,2.7319,8.5202*50
$GPRMC,003017.00,A,3509.6524834,N,13936.8303662,E,0.00,0.00,020405,0.0,E,A,V*48
$GPGGA,003017.00,3509.6524834,N,13936.8303662,E,1,06,1.0,34.081,M,36.478,M,0.0,0000*71
$GPGST,003017.00,0.000,4.7322,2.5683,13.710,4.6375,2.7356,8.5376*55
$GPRMC,003047.00,A,3509.6524497,N,13936.8301962,E,0.00,0.00,020405,0.0,E,A,V*45
$GPGGA,003047.00,3509.6524497,N,13936.8301962,E,1,06,1.0,33.525,M,36.478,M,0.0,0000*70
$GPGST,003047.00,0.000,4.7581,2.5707,13.671,4.6631,2.7394,8.5551*5C
$GPRMC,003117.00,A,3509.6524156,N,13936.8302740,E,0.00,0.00,020405,0.0,E,A,V*44
$GPGGA,003117.00,3509.6524156,N,13936.8302740,E,1,06,1.0,33.667,M,36.478,M,0.0,0000*74
$GPGST,003117.00,0.000,4.7842,2.5733,13.634,4.6888,2.7433,8.5727*59
$GPRMC,003147.00,A,3509.6524468,N,13936.8302330,E,0.00,0.00,020405,0.0,E,A,V*4A
$GPGGA,003147.00,3509.6524468,N,13936.8302330,E,1,06,1.0,34.009,M,36.478,M,0.0,0000*73
$GPGST,003147.00,0.000,4.8105,2.5759,13.599,4.7147,2.7473,8.5905*50
$GPRMC,003217.00,A,3509.6522933,N,13936.8300634,E,0.00,0.00,020405,0.0,E,A,V*4A
$GPGGA,003217.00,3509.6522933,N,13936.8300634,E,1,06,1.0,33.431,M,36.478,M,0.0,0000*7B
$GPGST,003217.00,0.000,4.8368,2.5786,13.564,4.7407,2.7514,8.6083*5A
$GPRMC,003247.00,A,3509.6524199,N,13936.8302550,E,0.00,0.00,020405,0.0,E,A,V*42
$GPGGA,003247.00,3509.6524199,N,13936.8302550,E,1,06,1.0,33.529,M,36.478,M,0.0,0000*7B
$GPGST,003247.00,0.000,4.8633,2.5814,13.532,4.7668,2.7557,8.6263*53
$GPRMC,003317.00,A,3509.6524289,N,13936.8302066,E,0.00,0.00,020405,0.0,E,A,V*44
$GPGGA,003317.00,3509.6524289,N,13936.8302066,E,1,06,1.0,33.011,M,36.478,M,0.0,0000*73
$GPGST,003317.00,0.000,4.8899,2.5843,13.500,4.7929,2.7601,8.6443*54
$GPRMC,003347.00,A,3509.6524950,N,13936.8303275,E,0.00,0.00,020405,0.0,E,A,V*4F
$GPGGA,003347.00,3509.6524950,N,13936.8303275,E,1,06,1.0,34.250,M,36.478,M,0.0,0000*78
$GPGST,003347.00,0.000,4.9166,2.5873,13.470,4.8192,2.7645,8.6625*59
$GPRMC,003417.00,A,3509.6525302,N,13936.8302024,E,0.00,0.00,020405,0.0,E,A,V*46
$GPGGA,003417.00,3509.6525302,N,13936.8302024,E,1,06,1.0,33.056,M,36.478,M,0.0,0000*72
$GPGST,003417.00,0.000,4.9434,2.5904,13.441,4.8456,2.7691,8.6807*50
$GPRMC,003447.00,A,3509.6525058,N,13936.8302146,E,0.00,0.00,020405,0.0,E,A,V*4A
$GPGGA,003447.00,3509.6525058,N,13936.8302146,E,1,06,1.0,34.050,M,36.478,M,0.0,0000*7F
$GPGST,003447.00,0.000,4.9702,2.5936,13.413,4.8719,2.7738,8.6990*50
$GPRMC,003517.00,A,3509.6524510,N,13936.8302422,E,0.00,0.00,020405,0.0,E,A,V*41
$GPGGA,003517.00,3509.6524510,N,13936.8302422,E,1,06,1.0,33.641,M,36.478,M,0.0,0000*75
$GPGST,003517.00,0.000,4.9971,2.5969,13.386,4.8984,2.7786,8.7173*54
$GPRMC,003547.00,A,3509.6525013,N,13936.8304590,E,0.00,0.00,020405,0.0,E,A,V*4D
$GPGGA,003547.00,3509.6525013,N,13936.8304590,E,1,06,1.0,33.756,M,36.478,M,0.0,0000*7E
$GPGST,003547.00,0.000,5.0240,2.6002,13.361,4.9248,2.7835,8.7358*58
$GPRMC,003617.00,A,3509.6525734,N,13936.8302319,E,0.00,0.00,020405,0.0,E,A,V*48
$GPGGA,003617.00,3509.6525734,N,13936.8302319,E,1,06,1.0,33.015,M,36.478,M,0.0,0000*7B
$GPGST,003617.00,0.000,5.0509,2.6037,13.336,4.9513,2.7885,8.7542*5F
$GPRMC,003647.00,A,3509.6523425,N,13936.8302483,E,0.00,0.00,020405,0.0,E,A,V*4C
$GPGGA,003647.00,3509.6523425,N,13936.8302483,E,1,06,1.0,33.141,M,36.478,M,0.0,0000*7F
$GPGST,003647.00,0.000,5.0778,2.6072,13.312,4.9777,2.7936,8.7727*51
$GPRMC,003717.00,A,3509.6525330,N,13936.8304218,E,0.00,0.00,020405,0.0,E,A,V*4F
$GPGGA,003717.00,3509.6525330,N,13936.8304218,E,1,06,1.0,33.993,M,36.478,M,0.0,0000*7B
$GPGST,003717.00,0.000,5.1047,2.6109,13.289,5.0042,2.7988,8.7913*54
$GPRMC,003747.00,A,3509.6523313,N,13936.8301884,E,0.00,0.00,020405,0.0,E,A,V*47
$GPGGA,003747.00,3509.6523313,N,13936.8301884,E,1,06,1.0,33.567,M,36.478,M,0.0,0000*74
$GPGST,003747.00,0.000,5.1315,2.6146,13.266,5.0305,2.8041,8.8098*59
$GPRMC,003817.00,A,3509.6524834,N,13936.8303916,E,0.00,0.00,020405,0.0,E,A,V*4C
$GPGGA,003817.00,3509.6524834,N,13936.8303916,E,1,06,1.0,33.791,M,36.478,M,0.0,0000*74
$GPGST,003817.00,0.000,5.1583,2.6184,13.244,5.0568,2.8094,8.8283*59
$GPRMC,003847.00,A,3509.6523600,N,13936.8302896,E,0.00,0.00,020405,0.0,E,A,V*4F
$GPGGA,003847.00,3509.6523600,N,13936.8302896,E,1,06,1.0,32.946,M,36.478,M,0.0,0000*72
$GPGST,003847.00,0.000,5.1850,2.6224,13.223,5.0830,2.8149,8.8468*55
$GPRMC,003917.00,A,3509.6525010,N,13936.8303841,E,0.00,0.00,020405,0.0,E,A,V*41
$GPGGA,003917.00,3509.6525010,N,13936.8303841,E,1,06,1.0,33.774,M,36.478,M,0.0,0000*72
$GPGST,003917.00,0.000,5.2115,2.6264,13.203,5.1091,2.8204,8.8653*5E
$GPRMC,003947.00,A,3509.6525881,N,13936.8303507,E,0.00,0.00,020405,0.0,E,A,V*4B
$GPGGA,003947.00,3509.6525881,N,13936.8303507,E,1,06,1.0,33.641,M,36.478,M,0.0,0000*7F
$GPGST,003947.00,0.000,5.2379,2.6305,13.182,5.1351,2.8260,8.8837*5E
$GPRMC,004017.00,A,3509.6526348,N,13936.8303537,E,0.00,0.00,020405,0.0,E,A,V*4E
$GPGGA,004017.00,3509.6526348,N,13936.8303537,E,1,06,1.0,33.585,M,36.478,M,0.0,0000*71
$GPGST,004017.00,0.000,5.2642,2.6347,13.163,5.1609,2.8317,8.9021*56
$GPRMC,004047.00,A,3509.6524148,N,13936.8303120,E,0.00,0.00,020405,0.0,E,A,V*49
$GPGGA,004047.00,3509.6524148,N,13936.8303120,E,1,06,1.0,33.160,M,36.478,M,0.0,0000*79
$GPGST,004047.00,0.000,5.2903,2.6390,13.143,5.1865,2.8375,8.9204*54
$GPRMC,004117.00,A,3509.6522686,N,13936.8301409,E,0.00,0.00,020405,0.0,E,A,V*42
$GPGGA,004117.00,3509.6522686,N,13936.8301409,E,1,06,1.0,32.955,M,36.478,M,0.0,0000*7D
$GPGST,004117.00,0.000,5.3161,2.6434,13.124,5.2119,2.8433,8.9386*5A
$GPRMC,004147.00,A,3509.6523132,N,13936.8302230,E,0.00,0.00,020405,0.0,E,A,V*41
$GPGGA,004147.00,3509.6523132,N,13936.8302230,E,1,06,1.0,33.398,M,36.478,M,0.0,0000*74
$GPGST,004147.00,0.000,5.3417,2.6479,13.105,5.2371,2.8492,8.9567*5F
$GPRMC,004217.00,A,3509.6523588,N,13936.8302578,E,0.00,0.00,020405,0.0,E,A,V*49
$GPGGA,004217.00,3509.6523588,N,13936.8302578,E,1,06,1.0,32.771,M,36.478,M,0.0,0000*7E
$GPGST,004217.00,0.000,5.3671,2.6525,13.086,5.2621,2.8551,8.9747*57
$GPRMC,004247.00,A,3509.6522990,N,13936.8302723,E,0.00,0.00,020405,0.0,E,A,V*44
$GPGGA,004247.00,3509.6522990,N,13936.8302723,E,1,06,1.0,32.927,M,36.478,M,0.0,0000*7E
$GPGST,004247.00,0.000,5.3922,2.6571,13.068,5.2868,2.8611,8.9925*54
$GPRMC,004317.00,A,3509.6524133,N,13936.8305392,E,0.00,0.00,020405,0.0,E,A,V*4E
$GPGGA,004317.00,3509.6524133,N,13936.8305392,E,1,06,1.0,32.780,M,36.478,M,0.0,0000*77
$GPGST,004317.00,0.000,5.4169,2.6619,13.049,5.3112,2.8671,9.0102*58
$GPRMC,004347.00,A,3509.6521931,N,13936.8305090,E,0.00,0.00,020405,0.0,E,A,V*45
$GPGGA,004347.00,3509.6521931,N,13936.8305090,E,1,06,1.0,33.291,M,36.478,M,0.0,0000*78
$GPGST,004347.00,0.000,5.4414,2.6668,13.030,5.3352,2.8732,9.0277*5B
$GPRMC,004417.00,A,3509.6522688,N,13936.8303647,E,0.00,0.00,020405,0.0,E,A,V*43
$GPGGA,004417.00,3509.6522688,N,13936.8303647,E,1,06,1.0,33.385,M,36.478,M,0.0,0000*7A
$GPGST,004417.00,0.000,5.4654,2.6718,13.011,5.3590,2.8793,9.0450*5A
$GPRMC,004447.00,A,3509.6523183,N,13936.8305358,E,0.00,0.00,020405,0.0,E,A,V*46
$GPGGA,004447.00,3509.6523183,N,13936.8305358,E,1,06,1.0,32.938,M,36.478,M,0.0,0000*72
$GPGST,004447.00,0.000,5.4891,2.6768,12.992,5.3823,2.8855,9.0621*58
$GPRMC,004517.00,A,3509.6525493,N,13936.8303575,E,0.00,0.00,020405,0.0,E,A,V*4F
$GPGGA,004517.00,3509.6525493,N,13936.8303575,E,1,06,1.0,32.852,M,36.478,M,0.0,0000*76
$GPGST,004517.00,0.000,5.5123,2.6820,12.973,5.4053,2.8917,9.0789*5D
$GPRMC,004547.00,A,3509.6525485,N,13936.8304585,E,0.00,0.00,020405,0.0,E,A,V*45
$GPGGA,004547.00,3509.6525485,N,13936.8304585,E,1,06,1.0,33.291,M,36.478,M,0.0,0000*78
$GPGST,004547.00,0.000,5.5351,2.6873,12.953,5.4278,2.8980,9.0955*51
$GPRMC,004617.00,A,3509.6524931,N,13936.8303348,E,0.00,0.00,020405,0.0,E,A,V*40
$GPGGA,004617.00,3509.6524931,N,13936.8303348,E,1,06,1.0,32.753,M,36.478,M,0.0,0000*77
$GPGST,004617.00,0.000,5.5574,2.6927,12.934,5.4499,2.9042,9.1119*59
$GPRMC,004647.00,A,3509.6523507,N,13936.8304211,E,0.00,0.00,020405,0.0,E,A,V*41
$GPGGA,004647.00,3509.6523507,N,13936.8304211,E,1,06,1.0,32.283,M,36.478,M,0.0,0000*7E
$GPGST,004647.00,0.000,5.5792,2.6981,12.913,5.4715,2.9105,9.1280*59
$GPRMC,004717.00,A,3509.6522576,N,13936.8302717,E,0.00,0.00,020405,0.0,E,A,V*47
$GPGGA,004717.00,3509.6522576,N,13936.8302717,E,1,06,1.0,33.241,M,36.478,M,0.0,0000*77
$GPGST,004717.00,0.000,5.6005,2.7037,12.892,5.4926,2.9168,9.1437*55
$GPRMC,004747.00,A,3509.6523456,N,13936.8304179,E,0.00,0.00,020405,0.0,E,A,V*48
$GPGGA,004747.00,3509.6523456,N,13936.8304179,E,1,06,1.0,32.407,M,36.478,M,0.0,0000*7D
$GPGST,004747.00,0.000,5.6213,2.7094,12.871,5.5132,2.9231,9.1592*5C
$GPRMC,004817.00,A,3509.6526190,N,13936.8304177,E,0.00,0.00,020405,0.0,E,A,V*46
$GPGGA,004817.00,3509.6526190,N,13936.8304177,E,1,06,1.0,33.361,M,36.478,M,0.0,0000*75
$GPGST,004817.00,0.000,5.6414,2.7152,12.849,5.5332,2.9294,9.1743*54
$GPRMC,004847.00,A,3509.6524242,N,13936.8303057,E,0.00,0.00,020405,0.0,E,A,V*49
$GPGGA,004847.00,3509.6524242,N,13936.8303057,E,1,06,1.0,32.765,M,36.478,M,0.0,0000*7B
$GPGST,004847.00,0.000,5.6610,2.7210,12.826,5.5527,2.9357,9.1891*57
$GPRMC,004917.00,A,3509.6524405,N,13936.8303861,E,0.00,0.00,020405,0.0,E,A,V*45
$GPGGA,004917.00,3509.6524405,N,13936.8303861,E,1,06,1.0,33.179,M,36.478,M,0.0,0000*7D
$GPGST,004917.00,0.000,5.6799,2.7270,12.802,5.5716,2.9420,9.2036*52
$GPRMC,004947.00,A,3509.6522330,N,13936.8302662,E,0.00,0.00,020405,0.0,E,A,V*4B
$GPGGA,004947.00,3509.6522330,N,13936.8302662,E,1,06,1.0,32.741,M,36.478,M,0.0,0000*7F
$GPGST,004947.00,0.000,5.6982,2.7331,12.778,5.5898,2.9484,9.2177*56
$GPRMC,005017.00,A,3509.6521731,N,13936.8303334,E,0.00,0.00,020405,0.0,E,A,V*47
$GPGGA,005017.00,3509.6521731,N,13936.8303334,E,1,06,1.0,32.993,M,36.478,M,0.0,0000*72
$GPGST,005017.00,0.000,5.7157,2.7393,12.753,5.6074,2.9547,9.2313*5C
$GPRMC,005047.00,A,3509.6521805,N,13936.8302247,E,0.00,0.00,020405,0.0,E,A,V*4E
$GPGGA,005047.00,3509.6521805,N,13936.8302247,E,1,06,1.0,32.670,M,36.478,M,0.0,0000*79
$GPGST,005047.00,0.000,5.7326,2.7456,12.726,5.6244,2.9610,9.2446*56
$GPRMC,005117.00,A,3509.6524779,N,13936.8303944,E,0.00,0.00,020405,0.0,E,A,V*42
$GPGGA,005117.00,3509.6524779,N,13936.8303944,E,1,06,1.0,32.609,M,36.478,M,0.0,0000*7B
$GPGST,005117.00,0.000,5.7488,2.7520,12.699,5.6407,2.9672,9.2575*50
$GPRMC,005147.00,A,3509.6523925,N,13936.8302218,E,0.00,0.00,020405,0.0,E,A,V*44
$GPGGA,005147.00,3509.6523925,N,13936.8302218,E,1,06,1.0,32.374,M,36.478,M,0.0,0000*72
$GPGST,005147.00,0.000,5.7642,2.7585,12.670,5.6563,2.9735,9.2700*58
$GPRMC,005217.00,A,3509.6525106,N,13936.8305498,E,0.00,0.00,020405,0.0,E,A,V*44
$GPGGA,005217.00,3509.6525106,N,13936.8305498,E,1,06,1.0,32.458,M,36.478,M,0.0,0000*7B
$GPGST,005217.00,0.000,5.7789,2.7651,12.641,5.6712,2.9797,9.2821*50
$GPRMC,005247.00,A,3509.6523474,N,13936.8302630,E,0.00,0.00,020405,0.0,E,A,V*40
$GPGGA,005247.00,3509.6523474,N,13936.8302630,E,1,06,1.0,32.011,M,36.478,M,0.0,0000*76
$GPGST,005247.00,0.000,5.7928,2.7718,12.610,5.6853,2.9860,9.2937*53
$GPRMC,005317.00,A,3509.6523727,N,13936.8304405,E,0.00,0.00,020405,0.0,E,A,V*43
$GPGGA,005317.00,3509.6523727,N,13936.8304405,E,1,06,1.0,31.951,M,36.478,M,0.0,0000*7B
$GPGST,005317.00,0.000,5.8059,2.7786,12.577,5.6987,2.9922,9.3049*5C
$GPRMC,005347.00,A,3509.6523296,N,13936.8303752,E,0.00,0.00,020405,0.0,E,A,V*4F
$GPGGA,005347.00,3509.6523296,N,13936.8303752,E,1,06,1.0,32.633,M,36.478,M,0.0,0000*7F
$GPGST,005347.00,0.000,5.8181,2.7856,12.543,5.7114,2.9983,9.3157*5E
$GPRMC,005417.00,A,3509.6523318,N,13936.8302460,E,0.00,0.00,020405,0.0,E,A,V*49
$GPGGA,005417.00,3509.6523318,N,13936.8302460,E,1,06,1.0,32.245,M,36.478,M,0.0,0000*7C
$GPGST,005417.00,0.000,5.8296,2.7926,12.508,5.7233,3.0045,9.3260*5A
$GPRMC,005447.00,A,3509.6522721,N,13936.8304612,E,0.00,0.00,020405,0.0,E,A,V*42
$GPGGA,005447.00,3509.6522721,N,13936.8304612,E,1,06,1.0,32.919,M,36.478,M,0.0,0000*75
$GPGST,005447.00,0.000,5.8402,2.7998,12.470,5.7344,3.0106,9.3358*52
$GPRMC,005517.00,A,3509.6522039,N,13936.8302792,E,0.00,0.00,020405,0.0,E,A,V*47
$GPGGA,005517.00,3509.6522039,N,13936.8302792,E,1,06,1.0,32.283,M,36.478,M,0.0,0000*78
$GPGST,005517.00,0.000,5.8500,2.8070,12.432,5.7447,3.0167,9.3453*5C
$GPRMC,005547.00,A,3509.6521565,N,13936.8303194,E,0.00,0.00,020405,0.0,E,A,V*4C
$GPGGA,005547.00,3509.6521565,N,13936.8303194,E,1,06,1.0,31.649,M,36.478,M,0.0,0000*72
$GPGST,005547.00,0.000,5.8589,2.8144,12.391,5.7542,3.0227,9.3543*53
$GPRMC,005617.00,A,3509.6519089,N,13936.8302074,E,0.00,0.00,020405,0.0,E,A,V*48
$GPGGA,005617.00,3509.6519089,N,13936.8302074,E,1,06,1.0,32.071,M,36.478,M,0.0,0000*78
$GPGST,005617.00,0.000,5.8670,2.8219,12.348,5.7629,3.0287,9.3628*55
$GPRMC,005647.00,A,3509.6553625,N,13936.8295200,E,0.00,0.00,020405,0.0,E,A,V*4D
$GPGGA,005647.00,3509.6553625,N,13936.8295200,E,1,05,1.0,47.666,M,36.478,M,0.0,0000*7C
$GPGST,005647.00,0.000,29.6224,3.4504,-9.941,29.1837,6.1403,74.3229*7F
