% program   : rnx2rtkp ver.EX 2.5.0
% inp file  : ../rinex/07590920.05o
% inp file  : ../rinex/30400920.05n
% obs start : 2005/04/02 00:00:00.0 GPST (week1316 518400.0s)
% obs end   : 2005/04/02 00:59:30.0 GPST (week1316 521970.0s)
%
% (lat/lon/height=WGS84/ellipsoidal,Q=1:fix,2:float,3:sbas,4:dgps,5:single,6:ppp,ns=# of satellites)
%  GPST                        latitude(deg) longitude(deg)  height(m)   Q  ns   sdn(m)   sde(m)   sdu(m)  sdne(m)  sdeu(m)  sdun(m) age(s)  ratio
2005/04/02 00:00:00.000257661   35.160874653  139.613828332    70.5104   5   7   3.2837   2.6323   7.2852   1.1928  -3.0176  -2.3495   0.00    0.0
2005/04/02 00:00:30.000215820   35.160875162  139.613830789    70.1096   5   7   3.2910   2.6302   7.2808   1.1924  -3.0070  -2.3485   0.00    0.0
2005/04/02 00:01:00.000173979   35.160874129  139.613832006    69.8978   5   7   3.2984   2.6280   7.2760   1.1919  -2.9961  -2.3474   0.00    0.0
2005/04/02 00:01:30.000132136   35.160871364  139.613830784    70.6229   5   7   3.3058   2.6259   7.2707   1.1915  -2.9850  -2.3462   0.00    0.0
2005/04/02 00:02:00.000090296   35.160870638  139.613831526    69.6104   5   7   3.3133   2.6238   7.2650   1.1910  -2.9737  -2.3450   0.00    0.0
2005/04/02 00:02:30.000048450   35.160873063  139.613828171    70.7174   5   7   3.3209   2.6217   7.2589   1.1906  -2.9622  -2.3437   0.00    0.0
2005/04/02 00:03:00.000006607   35.160874048  139.613832209    70.4963   5   7   3.3286   2.6197   7.2524   1.1901  -2.9505  -2.3424   0.00    0.0
2005/04/02 00:03:29.999964765   35.160873287  139.613834763    70.0180   5   7   3.3363   2.6176   7.2455   1.1896  -2.9385  -2.3409   0.00    0.0
2005/04/02 00:03:59.999922920   35.160871493  139.613831463    70.8762   5   7   3.3441   2.6156   7.2382   1.1891  -2.9263  -2.3395   0.00    0.0
2005/04/02 00:04:29.999881076   35.160875483  139.613830863    70.3339   5   7   3.3520   2.6136   7.2306   1.1885  -2.9139  -2.3380   0.00    0.0
2005/04/02 00:04:59.999839232   35.160878105  139.613833550    70.2929   5   7   3.3599   2.6117   7.2226   1.1880  -2.9013  -2.3364   0.00    0.0
2005/04/02 00:05:29.999797387   35.160872219  139.613831689    69.8630   5   7   3.3679   2.6097   7.2142   1.1875  -2.8886  -2.3348   0.00    0.0
2005/04/02 00:05:59.999755540   35.160875599  139.613831447    69.8554   5   7   3.3760   2.6078   7.2056   1.1869  -2.8756  -2.3331   0.00    0.0
2005/04/02 00:06:29.999713690   35.160870981  139.613833029    70.5906   5   7   3.3842   2.6060   7.1966   1.1863  -2.8625  -2.3314   0.00    0.0
2005/04/02 00:06:59.999671842   35.160871946  139.613834365    70.2390   5   7   3.3924   2.6042   7.1873   1.1857  -2.8491  -2.3296   0.00    0.0
2005/04/02 00:07:29.999629991   35.160870395  139.613833568    70.4850   5   7   3.4007   2.6024   7.1778   1.1852  -2.8356  -2.3278   0.00    0.0
2005/04/02 00:07:59.999588139   35.160875535  139.613832071    70.5798   5   7   3.4091   2.6006   7.1680   1.1846  -2.8220  -2.3260   0.00    0.0
2005/04/02 00:08:29.999546288   35.160874456  139.613834376    70.0188   5   7   3.4176   2.5989   7.1579   1.1840  -2.8082  -2.3241   0.00    0.0
2005/04/02 00:08:59.999504434   35.160872599  139.613834614    70.2374   5   7   3.4261   2.5973   7.1475   1.1833  -2.7942  -2.3223   0.00    0.0
2005/04/02 00:09:30.000462577   35.160872464  139.613833393    70.0212   5   7   3.4347   2.5956   7.1370   1.1827  -2.7800  -2.3203   0.00    0.0
2005/04/02 00:10:00.000420719   35.160873582  139.613833237    69.9699   5   7   3.4434   2.5941   7.1262   1.1821  -2.7657  -2.3184   0.00    0.0
2005/04/02 00:10:30.000378859   35.160874656  139.613832475    70.0448   5   7   3.4521   2.5925   7.1152   1.1815  -2.7513  -2.3164   0.00    0.0
2005/04/02 00:11:00.000337000   35.160871666  139.613834008    69.6679   5   7   3.4610   2.5911   7.1040   1.1808  -2.7368  -2.3144   0.00    0.0
2005/04/02 00:11:30.000295139   35.160874038  139.613834191    69.2069   5   7   3.4699   2.5896   7.0927   1.1802  -2.7221  -2.3124   0.00    0.0
2005/04/02 00:12:00.000253272   35.160870388  139.613832714    71.0471   5   7   3.4788   2.5883   7.0812   1.1795  -2.7072  -2.3104   0.00    0.0
2005/04/02 00:12:30.000211409   35.160869486  139.613835326    70.0408   5   7   3.4879   2.5869   7.0695   1.1789  -2.6923  -2.3084   0.00    0.0
2005/04/02 00:13:00.000169542   35.160874576  139.613829722    70.1445   5   7   3.4970   2.5857   7.0577   1.1782  -2.6772  -2.3064   0.00    0.0
2005/04/02 00:13:30.000127675   35.160873738  139.613833441    69.4773   5   7   3.5062   2.5845   7.0458   1.1776  -2.6621  -2.3044   0.00    0.0
2005/04/02 00:14:00.000085805   35.160869462  139.613834667    69.2991   5   7   3.5155   2.5833   7.0337   1.1769  -2.6468  -2.3023   0.00    0.0
2005/04/02 00:14:30.000043932   35.160871959  139.613833833    69.6624   5   7   3.5249   2.5822   7.0216   1.1762  -2.6314  -2.3003   0.00    0.0
2005/04/02 00:15:00.000002059   35.160872360  139.613830919    70.2000   5   7   3.5343   2.5812   7.0094   1.1755  -2.6158  -2.2983   0.00    0.0
2005/04/02 00:15:29.999960185   35.160870944  139.613833690    69.9168   5   7   3.5438   2.5802   6.9971   1.1749  -2.6002  -2.2963   0.00    0.0
2005/04/02 00:15:59.999918311   35.160870765  139.613831821    69.7511   5   7   3.5534   2.5793   6.9848   1.1742  -2.5845  -2.2943   0.00    0.0
2005/04/02 00:16:29.999876435   35.160870019  139.613833258    70.2474   5   7   3.5630   2.5785   6.9724   1.1735  -2.5687  -2.2923   0.00    0.0
2005/04/02 00:16:59.999834556   35.160871665  139.613830615    70.4091   5   7   3.5727   2.5777   6.9599   1.1728  -2.5528  -2.2903   0.00    0.0
2005/04/02 00:17:29.999792676   35.160870820  139.613833813    69.6525   5   7   3.5825   2.5770   6.9474   1.1721  -2.5369  -2.2883   0.00    0.0
2005/04/02 00:17:59.999750787   35.160876470  139.613834518    70.7153   5   6   4.0659   2.6818   8.1448   1.6704  -1.7815   1.7047   0.00    0.0
2005/04/02 00:18:29.999708894   35.160873800  139.613836573    70.8065   5   6   4.0858   2.6824   8.1590   1.6776  -1.7434   1.7626   0.00    0.0
2005/04/02 00:18:59.999667000   35.160876314  139.613832976    70.3112   5   6   4.1060   2.6831   8.1733   1.6850  -1.7041   1.8194   0.00    0.0
2005/04/02 00:19:29.999625102   35.160874255  139.613835375    70.4100   5   6   4.1265   2.6840   8.1876   1.6927  -1.6636   1.8751   0.00    0.0
2005/04/02 00:19:59.999583197   35.160874489  139.613834349    71.1814   5   6   4.1472   2.6850   8.2021   1.7005  -1.6218   1.9300   0.00    0.0
2005/04/02 00:20:29.999541296   35.160872126  139.613834019    70.7564   5   6   4.1681   2.6861   8.2168   1.7085  -1.5786   1.9840   0.00    0.0
2005/04/02 00:20:59.999499395   35.160873418  139.613832705    71.1331   5   6   4.1894   2.6874   8.2315   1.7167  -1.5339   2.0372   0.00    0.0
2005/04/02 00:21:30.000457497   35.160869482  139.613835614    70.6684   5   6   4.2109   2.6888   8.2464   1.7252  -1.4876   2.0897   0.00    0.0
2005/04/02 00:22:00.000415600   35.160873483  139.613835905    70.8165   5   6   4.2326   2.6903   8.2614   1.7338  -1.4395   2.1415   0.00    0.0
2005/04/02 00:22:30.000373705   35.160871183  139.613832646    70.2970   5   6   4.2546   2.6919   8.2765   1.7426  -1.3894   2.1927   0.00    0.0
2005/04/02 00:23:00.000331813   35.160873718  139.613836110    69.2825   5   6   4.2768   2.6937   8.2917   1.7516  -1.3371   2.2432   0.00    0.0
2005/04/02 00:23:30.000289912   35.160876053  139.613836479    70.6932   5   6   4.2993   2.6956   8.3071   1.7608  -1.2824   2.2933   0.00    0.0
2005/04/02 00:24:00.000248016   35.160870817  139.613833066    70.2616   5   6   4.3220   2.6976   8.3227   1.7702  -1.2248   2.3427   0.00    0.0
2005/04/02 00:24:30.000206118   35.160873735  139.613836895    70.3513   5   6   4.3450   2.6998   8.3384   1.7797  -1.1641   2.3917   0.00    0.0
2005/04/02 00:25:00.000164223   35.160874292  139.613833202    69.2624   5   6   4.3682   2.7021   8.3542   1.7895  -1.0997   2.4402   0.00    0.0
2005/04/02 00:25:30.000122322   35.160873276  139.613834529    70.3348   5   6   4.3916   2.7045   8.3701   1.7994  -1.0308   2.4882   0.00    0.0
2005/04/02 00:26:00.000080426   35.160873750  139.613835071    69.4650   5   6   4.4153   2.7070   8.3862   1.8095  -0.9566   2.5357   0.00    0.0
2005/04/02 00:26:30.000038524   35.160872382  139.613835584    70.2322   5   6   4.4392   2.7097   8.4025   1.8197  -0.8757   2.5828   0.00    0.0
2005/04/02 00:26:59.999996625   35.160875160  139.613835769    69.5024   5   6   4.4633   2.7125   8.4189   1.8302  -0.7859   2.6295   0.00    0.0
2005/04/02 00:27:29.999954721   35.160874927  139.613836979    69.9664   5   6   4.4876   2.7154   8.4354   1.8408  -0.6840   2.6758   0.00    0.0
2005/04/02 00:27:59.999912818   35.160874261  139.613838312    70.4610   5   6   4.5121   2.7185   8.4521   1.8515  -0.5633   2.7217   0.00    0.0
2005/04/02 00:28:29.999870914   35.160873496  139.613833701    70.1232   5   6   4.5368   2.7216   8.4689   1.8624  -0.4074   2.7671   0.00    0.0
2005/04/02 00:28:59.999829008   35.160874333  139.613835992    70.2313   5   6   4.5617   2.7249   8.4859   1.8734  -0.1181   2.8122   0.00    0.0
2005/04/02 00:29:29.999787106   35.160873620  139.613835814    68.3598   5   6   4.5868   2.7284   8.5030   1.8846   0.3725   2.8568   0.00    0.0
2005/04/02 00:29:59.999745194   35.160873928  139.613835149    69.7329   5   6   4.6121   2.7319   8.5202   1.8958   0.5405   2.9011   0.00    0.0
2005/04/02 00:30:29.999703284   35.160874723  139.613839436    70.5585   5   6   4.6375   2.7356   8.5376   1.9073   0.6680   2.9450   0.00    0.0
2005/04/02 00:30:59.999661374   35.160874162  139.613836604    70.0028   5   6   4.6631   2.7394   8.5551   1.9188   0.7752   2.9884   0.00    0.0
2005/04/02 00:31:29.999619460   35.160873594  139.613837900    70.1449   5   6   4.6888   2.7433   8.5727   1.9304   0.8696   3.0315   0.00    0.0
2005/04/02 00:31:59.999577543   35.160874113  139.613837216    70.4862   5   6   4.7147   2.7473   8.5905   1.9421   0.9550   3.0741   0.00    0.0
2005/04/02 00:32:29.999535629   35.160871555  139.613834390    69.9083   5   6   4.7407   2.7514   8.6083   1.9540   1.0336   3.1164   0.00    0.0
2005/04/02 00:33:00.000493711   35.160873665  139.613837584    70.0067   5   6   4.7668   2.7557   8.6263   1.9659   1.1069   3.1582   0.00    0.0
2005/04/02 00:33:30.000451795   35.160873815  139.613836777    69.4883   5   6   4.7929   2.7601   8.6443   1.9778   1.1758   3.1996   0.00    0.0
2005/04/02 00:34:00.000409875   35.160874916  139.613838791    70.7277   5   6   4.8192   2.7645   8.6625   1.9898   1.2411   3.2405   0.00    0.0
2005/04/02 00:34:30.000367959   35.160875504  139.613836707    69.5335   5   6   4.8456   2.7691   8.6807   2.0019   1.3033   3.2810   0.00    0.0
2005/04/02 00:35:00.000326037   35.160875097  139.613836910    70.5277   5   6   4.8719   2.7738   8.6990   2.0140   1.3628   3.3210   0.00    0.0
2005/04/02 00:35:30.000284116   35.160874184  139.613837370    70.1186   5   6   4.8984   2.7786   8.7173   2.0262   1.4199   3.3605   0.00    0.0
2005/04/02 00:36:00.000242193   35.160875021  139.613840984    70.2337   5   6   4.9248   2.7835   8.7358   2.0383   1.4748   3.3996   0.00    0.0
2005/04/02 00:36:30.000200271   35.160876223  139.613837199    69.4928   5   6   4.9513   2.7885   8.7542   2.0504   1.5279   3.4381   0.00    0.0
2005/04/02 00:37:00.000158345   35.160872375  139.613837472    69.6188   5   6   4.9777   2.7936   8.7727   2.0626   1.5792   3.4761   0.00    0.0
2005/04/02 00:37:30.000116416   35.160875550  139.613840363    70.4707   5   6   5.0042   2.7988   8.7913   2.0747   1.6290   3.5135   0.00    0.0
2005/04/02 00:38:00.000074493   35.160872189  139.613836474    70.0450   5   6   5.0305   2.8041   8.8098   2.0868   1.6773   3.5504   0.00    0.0
2005/04/02 00:38:30.000032572   35.160874724  139.613839860    70.2685   5   6   5.0568   2.8094   8.8283   2.0988   1.7242   3.5867   0.00    0.0
2005/04/02 00:38:59.999990657   35.160872667  139.613838160    69.4239   5   6   5.0830   2.8149   8.8468   2.1107   1.7699   3.6223   0.00    0.0
2005/04/02 00:39:29.999948739   35.160875017  139.613839734    70.2520   5   6   5.1091   2.8204   8.8653   2.1226   1.8143   3.6573   0.00    0.0
2005/04/02 00:39:59.999906822   35.160876468  139.613839178    70.1186   5   6   5.1351   2.8260   8.8837   2.1344   1.8577   3.6917   0.00    0.0
2005/04/02 00:40:29.999864906   35.160877247  139.613839228    70.0624   5   6   5.1609   2.8317   8.9021   2.1460   1.9000   3.7254   0.00    0.0
2005/04/02 00:40:59.999822987   35.160873581  139.613838534    69.6374   5   6   5.1865   2.8375   8.9204   2.1575   1.9413   3.7583   0.00    0.0
2005/04/02 00:41:29.999781064   35.160871143  139.613835682    69.4326   5   6   5.2119   2.8433   8.9386   2.1689   1.9816   3.7906   0.00    0.0
2005/04/02 00:41:59.999739137   35.160871887  139.613837049    69.8755   5   6   5.2371   2.8492   8.9567   2.1801   2.0210   3.8220   0.00    0.0
2005/04/02 00:42:29.999697211   35.160872647  139.613837629    69.2489   5   6   5.2621   2.8551   8.9747   2.1911   2.0595   3.8527   0.00    0.0
2005/04/02 00:42:59.999655279   35.160871651  139.613837872    69.4045   5   6   5.2868   2.8611   8.9925   2.2020   2.0971   3.8826   0.00    0.0
2005/04/02 00:43:29.999613344   35.160873555  139.613842320    69.2576   5   6   5.3112   2.8671   9.0102   2.2126   2.1339   3.9116   0.00    0.0
2005/04/02 00:43:59.999571403   35.160869886  139.613841816    69.7684   5   6   5.3352   2.8732   9.0277   2.2230   2.1699   3.9397   0.00    0.0
2005/04/02 00:44:29.999529458   35.160871147  139.613839412    69.8625   5   6   5.3590   2.8793   9.0450   2.2331   2.2051   3.9669   0.00    0.0
2005/04/02 00:45:00.000487511   35.160871971  139.613842264    69.4155   5   6   5.3823   2.8855   9.0621   2.2429   2.2395   3.9932   0.00    0.0
2005/04/02 00:45:30.000445560   35.160875822  139.613839292    69.3296   5   6   5.4053   2.8917   9.0789   2.2525   2.2731   4.0185   0.00    0.0
2005/04/02 00:46:00.000403603   35.160875808  139.613840976    69.7684   5   6   5.4278   2.8980   9.0955   2.2617   2.3060   4.0428   0.00    0.0
2005/04/02 00:46:30.000361646   35.160874885  139.613838914    69.2308   5   6   5.4499   2.9042   9.1119   2.2706   2.3381   4.0660   0.00    0.0
2005/04/02 00:47:00.000319684   35.160872511  139.613840351    68.7607   5   6   5.4715   2.9105   9.1280   2.2792   2.3696   4.0882   0.00    0.0
2005/04/02 00:47:30.000277715   35.160870960  139.613837862    69.7182   5   6   5.4926   2.9168   9.1437   2.2874   2.4003   4.1093   0.00    0.0
2005/04/02 00:48:00.000235748   35.160872427  139.613840299    68.8841   5   6   5.5132   2.9231   9.1592   2.2952   2.4303   4.1293   0.00    0.0
2005/04/02 00:48:30.000193771   35.160876983  139.613840295    69.8390   5   6   5.5332   2.9294   9.1743   2.3026   2.4596   4.1481   0.00    0.0
2005/04/02 00:49:00.000151798   35.160873736  139.613838429    69.2425   5   6   5.5527   2.9357   9.1891   2.3095   2.4882   4.1657   0.00    0.0
2005/04/02 00:49:30.000109818   35.160874009  139.613839768    69.6568   5   6   5.5716   2.9420   9.2036   2.3161   2.5161   4.1821   0.00    0.0
2005/04/02 00:50:00.000067834   35.160870550  139.613837770    69.2189   5   6   5.5898   2.9484   9.2177   2.3221   2.5434   4.1972   0.00    0.0
2005/04/02 00:50:30.000025844   35.160869552  139.613838889    69.4702   5   6   5.6074   2.9547   9.2313   2.3277   2.5700   4.2110   0.00    0.0
2005/04/02 00:50:59.999983851   35.160869674  139.613837079    69.1476   5   6   5.6244   2.9610   9.2446   2.3328   2.5959   4.2235   0.00    0.0
2005/04/02 00:51:29.999941854   35.160874632  139.613839907    69.0869   5   6   5.6407   2.9672   9.2575   2.3374   2.6212   4.2347   0.00    0.0
2005/04/02 00:51:59.999899853   35.160873208  139.613837030    68.8513   5   6   5.6563   2.9735   9.2700   2.3414   2.6458   4.2445   0.00    0.0
2005/04/02 00:52:29.999857847   35.160875176  139.613842496    68.9355   5   6   5.6712   2.9797   9.2821   2.3449   2.6698   4.2529   0.00    0.0
2005/04/02 00:52:59.999815839   35.160872456  139.613837717    68.4884   5   6   5.6853   2.9860   9.2937   2.3478   2.6931   4.2599   0.00    0.0
2005/04/02 00:53:29.999773824   35.160872878  139.613840675    68.4287   5   6   5.6987   2.9922   9.3049   2.3501   2.7159   4.2655   0.00    0.0
2005/04/02 00:53:59.999731803   35.160872160  139.613839587    69.1101   5   6   5.7114   2.9983   9.3157   2.3518   2.7380   4.2695   0.00    0.0
2005/04/02 00:54:29.999689781   35.160872197  139.613837434    68.7221   5   6   5.7233   3.0045   9.3260   2.3530   2.7595   4.2721   0.00    0.0
2005/04/02 00:54:59.999647752   35.160871201  139.613841021    69.3969   5   6   5.7344   3.0106   9.3358   2.3534   2.7804   4.2731   0.00    0.0
2005/04/02 00:55:29.999605720   35.160870065  139.613837986    68.7602   5   6   5.7447   3.0167   9.3453   2.3533   2.8007   4.2726   0.00    0.0
2005/04/02 00:55:59.999563684   35.160869276  139.613838656    68.1266   5   6   5.7542   3.0227   9.3543   2.3525   2.8204   4.2706   0.00    0.0
2005/04/02 00:56:29.999521639   35.160865148  139.613836789    68.5483   5   6   5.7629   3.0287   9.3628   2.3510   2.8396   4.2669   0.00    0.0
2005/04/02 00:57:00.000479543   35.160922708  139.613825334    84.1439   5   5  29.1837   6.1403  74.3229 -12.1322 -19.6316  46.1236   0.00    0.0
