% program   : RTKLIB ver.EX 2.5.0
% inp file  : ../rinex/07590920.05o
% inp file  : ../rinex/30400920.05n
% inp file  : ../rinex/30400920.05o
% obs start : 2005/04/02 00:00:00.0 GPST (week1316 518400.0s)
% obs end   : 2005/04/02 00:59:30.0 GPST (week1316 521970.0s)
% pos mode  : Kinematic
% freqs     : L1+L2/E5b
% solution  : Combined-Phase Reset
% elev mask : 10.0 deg
% dynamics  : off
% tidecorr  :
% ionos opt : Broadcast
% tropo opt : Saastamoinen
% ephemeris : Broadcast
% navi sys  : GPS
% amb res   : Continuous
% val thres : 3.0
% antenna1  : TRM29659.00     NONE  ( 0.0000  0.0000  0.0000)
% antenna2  : TRM29659.00     NONE  ( 0.0000  0.0000  0.0000)
% ref pos   :  35.132057068  139.624306577    73.9077
%
% (lat/lon/height=WGS84/ellipsoidal,Q=1:fix,2:float,3:sbas,4:dgps,5:single,6:ppp,ns=# of satellites)
%  GPST                  latitude(deg) longitude(deg)  height(m)   Q  ns   sdn(m)   sde(m)   sdu(m)  sdne(m)  sdeu(m)  sdun(m) age(s)  ratio
2005/04/02 00:00:00.000   35.160865956  139.613842998    68.3784   1   7   0.0059   0.0044   0.0136   0.0024  -0.0046  -0.0055   0.00  103.7
2005/04/02 00:00:30.000   35.160865949  139.613843027    68.3717   1   7   0.0056   0.0047   0.0136   0.0023  -0.0047  -0.0055   0.00  103.3
2005/04/02 00:01:00.000   35.160865936  139.613843023    68.3731   1   7   0.0057   0.0048   0.0136   0.0020  -0.0046  -0.0055   0.00  100.8
2005/04/02 00:01:30.000   35.160865926  139.613843004    68.3840   1   7   0.0059   0.0044   0.0136   0.0020  -0.0047  -0.0054   0.00   98.9
2005/04/02 00:02:00.000   35.160865971  139.613843055    68.3811   1   7   0.0060   0.0044   0.0136   0.0022  -0.0045  -0.0054   0.00   96.8
2005/04/02 00:02:30.000   35.160865963  139.613843040    68.3786   1   7   0.0041   0.0032   0.0095   0.0016  -0.0032  -0.0037   0.00   64.3
2005/04/02 00:03:00.000   35.160865940  139.613843020    68.3916   1   7   0.0040   0.0032   0.0095   0.0015  -0.0032  -0.0038   0.00   74.9
2005/04/02 00:03:30.000   35.160865923  139.613842999    68.3959   1   7   0.0040   0.0031   0.0095   0.0012  -0.0033  -0.0038   0.00   74.1
2005/04/02 00:04:00.000   35.160865958  139.613842990    68.3940   1   7   0.0041   0.0031   0.0095   0.0015  -0.0031  -0.0037   0.00   71.5
2005/04/02 00:04:30.000   35.160865969  139.613843069    68.3780   1   7   0.0042   0.0031   0.0095   0.0015  -0.0031  -0.0037   0.00   65.3
2005/04/02 00:05:00.000   35.160866001  139.613843022    68.3837   1   7   0.0040   0.0032   0.0095   0.0015  -0.0031  -0.0037   0.00   64.5
2005/04/02 00:05:30.000   35.160866013  139.613842985    68.3898   1   7   0.0043   0.0032   0.0094   0.0015  -0.0031  -0.0037   0.00   66.5
2005/04/02 00:06:00.000   35.160866020  139.613842999    68.3805   1   7   0.0042   0.0031   0.0095   0.0018  -0.0031  -0.0035   0.00   67.1
2005/04/02 00:06:30.000   35.160866000  139.613843001    68.3818   1   7   0.0040   0.0033   0.0094   0.0014  -0.0031  -0.0036   0.00   67.7
2005/04/02 00:07:00.000   35.160865966  139.613842968    68.3873   1   7   0.0042   0.0029   0.0094   0.0016  -0.0032  -0.0035   0.00   67.4
2005/04/02 00:07:30.000   35.160865968  139.613842966    68.3893   1   7   0.0041   0.0032   0.0094   0.0017  -0.0030  -0.0034   0.00   66.8
2005/04/02 00:08:00.000   35.160865976  139.613842995    68.3841   1   7   0.0041   0.0031   0.0094   0.0016  -0.0030  -0.0034   0.00   73.5
2005/04/02 00:08:30.000   35.160865955  139.613842962    68.3827   1   7   0.0040   0.0032   0.0093   0.0014  -0.0030  -0.0035   0.00   80.1
2005/04/02 00:09:00.000   35.160865933  139.613843002    68.3839   1   7   0.0041   0.0031   0.0093   0.0015  -0.0030  -0.0034   0.00   84.1
2005/04/02 00:09:30.000   35.160865976  139.613843073    68.3586   1   7   0.0042   0.0031   0.0093   0.0016  -0.0030  -0.0033   0.00   84.0
2005/04/02 00:10:00.000   35.160865968  139.613843033    68.3793   1   7   0.0041   0.0030   0.0093   0.0014  -0.0029  -0.0034   0.00   87.2
2005/04/02 00:10:30.000   35.160865961  139.613842999    68.3779   1   7   0.0040   0.0030   0.0093   0.0013  -0.0029  -0.0033   0.00   98.2
2005/04/02 00:11:00.000   35.160865975  139.613843026    68.3764   1   7   0.0041   0.0032   0.0093   0.0014  -0.0029  -0.0033   0.00  105.3
2005/04/02 00:11:30.000   35.160866004  139.613843053    68.3720   1   7   0.0040   0.0030   0.0093   0.0012  -0.0030  -0.0033   0.00  110.8
2005/04/02 00:12:00.000   35.160865980  139.613843032    68.3863   1   7   0.0040   0.0029   0.0092   0.0013  -0.0029  -0.0032   0.00  120.8
2005/04/02 00:12:30.000   35.160866000  139.613843054    68.3759   1   7   0.0040   0.0029   0.0092   0.0015  -0.0029  -0.0032   0.00  131.2
2005/04/02 00:13:00.000   35.160866004  139.613843031    68.3850   1   7   0.0041   0.0031   0.0092   0.0015  -0.0028  -0.0031   0.00  136.0
2005/04/02 00:13:30.000   35.160866003  139.613842992    68.3821   1   7   0.0040   0.0031   0.0092   0.0015  -0.0028  -0.0031   0.00  145.1
2005/04/02 00:14:00.000   35.160865982  139.613842988    68.3934   1   7   0.0041   0.0031   0.0092   0.0015  -0.0028  -0.0030   0.00  150.7
2005/04/02 00:14:30.000   35.160866004  139.613843023    68.3832   1   7   0.0040   0.0030   0.0092   0.0012  -0.0028  -0.0031   0.00  149.6
2005/04/02 00:15:00.000   35.160865963  139.613843039    68.3867   1   7   0.0042   0.0031   0.0091   0.0015  -0.0028  -0.0030   0.00  145.3
2005/04/02 00:15:30.000   35.160865969  139.613843019    68.3839   1   7   0.0042   0.0029   0.0091   0.0015  -0.0027  -0.0030   0.00  141.3
2005/04/02 00:16:00.000   35.160865972  139.613843044    68.3791   1   7   0.0041   0.0027   0.0091   0.0013  -0.0027  -0.0029   0.00  138.4
2005/04/02 00:16:30.000   35.160865965  139.613843033    68.3853   1   7   0.0041   0.0029   0.0091   0.0014  -0.0027  -0.0028   0.00  130.8
2005/04/02 00:17:00.000   35.160865973  139.613843028    68.3874   1   7   0.0042   0.0030   0.0091   0.0016  -0.0026  -0.0027   0.00  129.4
2005/04/02 00:17:30.000   35.160865939  139.613843031    68.3867   1   7   0.0040   0.0030   0.0091   0.0013  -0.0027  -0.0028   0.00  125.8
2005/04/02 00:18:00.000   35.160865982  139.613843060    68.3915   1   7   0.0041   0.0029   0.0091   0.0013  -0.0025  -0.0028   0.00  126.4
2005/04/02 00:18:30.000   35.160865969  139.613843051    68.3782   1   7   0.0041   0.0031   0.0091   0.0013  -0.0026  -0.0027   0.00  125.1
2005/04/02 00:19:00.000   35.160865946  139.613843062    68.3900   1   7   0.0042   0.0030   0.0091   0.0016  -0.0026  -0.0025   0.00  125.5
2005/04/02 00:19:30.000   35.160865949  139.613843054    68.3901   1   7   0.0041   0.0030   0.0090   0.0013  -0.0026  -0.0026   0.00  126.6
2005/04/02 00:20:00.000   35.160865962  139.613843043    68.3979   1   7   0.0042   0.0030   0.0090   0.0016  -0.0025  -0.0025   0.00  123.1
2005/04/02 00:20:30.000   35.160865979  139.613843042    68.3923   1   7   0.0042   0.0030   0.0091   0.0013  -0.0025  -0.0023   0.00  117.4
2005/04/02 00:20:59.999   35.160865999  139.613843064    68.3884   1   7   0.0042   0.0029   0.0090   0.0016  -0.0025  -0.0024   0.00  114.0
2005/04/02 00:21:30.000   35.160866026  139.613843031    68.3959   1   7   0.0043   0.0031   0.0090   0.0015  -0.0024  -0.0024   0.00  106.0
2005/04/02 00:22:00.000   35.160865986  139.613843014    68.4031   1   7   0.0042   0.0029   0.0090   0.0015  -0.0026  -0.0022   0.00  105.1
2005/04/02 00:22:30.000   35.160865977  139.613843009    68.3952   1   7   0.0043   0.0030   0.0090   0.0013  -0.0023  -0.0022   0.00   99.7
2005/04/02 00:23:00.000   35.160866003  139.613843037    68.4006   1   7   0.0043   0.0033   0.0090   0.0015  -0.0024  -0.0021   0.00   92.3
2005/04/02 00:23:30.000   35.160865989  139.613843024    68.4019   1   7   0.0042   0.0028   0.0090   0.0012  -0.0024  -0.0020   0.00   85.7
2005/04/02 00:24:00.000   35.160866036  139.613843089    68.3903   1   7   0.0043   0.0030   0.0090   0.0016  -0.0024  -0.0019   0.00   76.8
2005/04/02 00:24:30.000   35.160866027  139.613843081    68.4015   1   7   0.0043   0.0028   0.0090   0.0016  -0.0023  -0.0020   0.00   69.9
2005/04/02 00:25:00.000   35.160865996  139.613843044    68.4009   1   7   0.0043   0.0032   0.0090   0.0016  -0.0022  -0.0019   0.00   65.7
2005/04/02 00:25:30.000   35.160865999  139.613843055    68.4061   1   7   0.0045   0.0031   0.0089   0.0016  -0.0022  -0.0018   0.00   60.3
2005/04/02 00:26:00.000   35.160865983  139.613843067    68.3910   1   7   0.0044   0.0029   0.0091   0.0016  -0.0022  -0.0015   0.00   54.8
2005/04/02 00:26:30.000   35.160865970  139.613843101    68.3937   1   7   0.0044   0.0032   0.0091   0.0014  -0.0021  -0.0013   0.00   50.7
2005/04/02 00:27:00.000   35.160865991  139.613843070    68.4005   1   7   0.0044   0.0030   0.0092   0.0016  -0.0021  -0.0010   0.00   45.7
2005/04/02 00:27:30.000   35.160865971  139.613843057    68.4042   1   7   0.0044   0.0031   0.0092   0.0014  -0.0020  -0.0005   0.00   41.7
2005/04/02 00:28:00.000   35.160865992  139.613843046    68.3965   1   7   0.0045   0.0029   0.0094   0.0015  -0.0019   0.0011   0.00   38.2
2005/04/02 00:28:30.000   35.160865944  139.613843007    68.3861   1   7   0.0046   0.0029   0.0101   0.0017  -0.0013   0.0023   0.00   38.6
2005/04/02 00:29:00.000   35.160865951  139.613843021    68.3805   1   6   0.0048   0.0031   0.0101   0.0017  -0.0014   0.0024   0.00   39.9
2005/04/02 00:29:30.000   35.160865937  139.613843023    68.3848   1   7   0.0048   0.0028   0.0101   0.0018  -0.0014   0.0025   0.00   41.2
2005/04/02 00:30:00.000   35.160865973  139.613843056    68.3852   1   6   0.0047   0.0028   0.0101   0.0020  -0.0015   0.0027   0.00   42.3
2005/04/02 00:30:30.000   35.160865938  139.613843040    68.3787   1   6   0.0047   0.0029   0.0101   0.0020  -0.0013   0.0027   0.00   43.3
2005/04/02 00:31:00.000   35.160865929  139.613843061    68.3872   1   6   0.0048   0.0029   0.0101   0.0018  -0.0015   0.0028   0.00   44.6
2005/04/02 00:31:30.000   35.160865937  139.613843029    68.3793   1   6   0.0048   0.0027   0.0101   0.0019  -0.0012   0.0028   0.00   46.4
2005/04/02 00:32:00.000   35.160865995  139.613843086    68.3681   1   6   0.0048   0.0030   0.0101   0.0016  -0.0010   0.0029   0.00   48.0
2005/04/02 00:32:30.000   35.160865969  139.613843039    68.3819   1   6   0.0048   0.0028   0.0102   0.0017  -0.0009   0.0030   0.00   49.8
2005/04/02 00:33:00.000   35.160865927  139.613843035    68.3870   1   6   0.0048   0.0031   0.0102   0.0017  -0.0007   0.0030   0.00   51.0
2005/04/02 00:33:30.000   35.160865990  139.613843067    68.3880   1   6   0.0048   0.0029   0.0102   0.0017  -0.0006   0.0031   0.00   51.7
2005/04/02 00:34:00.000   35.160866000  139.613843007    68.3940   1   6   0.0048   0.0030   0.0102   0.0019  -0.0011   0.0033   0.00   52.5
2005/04/02 00:34:30.000   35.160866004  139.613843031    68.3816   1   6   0.0047   0.0030   0.0102   0.0019  -0.0007   0.0033   0.00   53.2
2005/04/02 00:35:00.000   35.160865999  139.613843043    68.3885   1   6   0.0051   0.0031   0.0102   0.0016  -0.0008   0.0033   0.00   53.3
2005/04/02 00:35:30.000   35.160865968  139.613843031    68.3704   1   6   0.0049   0.0031   0.0103   0.0016  -0.0007   0.0035   0.00   54.2
2005/04/02 00:36:00.000   35.160866008  139.613843077    68.3895   1   6   0.0050   0.0031   0.0103   0.0015  -0.0004   0.0035   0.00   55.2
2005/04/02 00:36:30.000   35.160865974  139.613843059    68.3739   1   6   0.0050   0.0031   0.0103   0.0016   0.0001   0.0036   0.01   56.1
2005/04/02 00:37:00.000   35.160865974  139.613843028    68.3849   1   6   0.0051   0.0030   0.0103   0.0019  -0.0006   0.0037   0.01   56.3
2005/04/02 00:37:30.000   35.160865943  139.613843025    68.3791   1   6   0.0051   0.0032   0.0104   0.0014   0.0006   0.0038   0.01   57.3
2005/04/02 00:38:00.000   35.160865942  139.613843042    68.3793   1   6   0.0052   0.0029   0.0104   0.0018  -0.0006   0.0038   0.01   58.2
2005/04/02 00:38:30.000   35.160865935  139.613843057    68.3810   1   6   0.0052   0.0030   0.0104   0.0018   0.0006   0.0039   0.01   59.2
2005/04/02 00:39:00.000   35.160865923  139.613843007    68.3797   1   6   0.0053   0.0030   0.0104   0.0017   0.0002   0.0040   0.01   59.6
2005/04/02 00:39:30.000   35.160865911  139.613843010    68.3791   1   6   0.0052   0.0028   0.0105   0.0020   0.0002   0.0041   0.01   60.4
2005/04/02 00:40:00.000   35.160865975  139.613843011    68.3797   1   6   0.0054   0.0032   0.0105   0.0016   0.0009   0.0041   0.01   60.4
2005/04/02 00:40:30.000   35.160865984  139.613843055    68.3855   1   6   0.0054   0.0031   0.0105   0.0015   0.0007   0.0042   0.01   61.2
2005/04/02 00:41:00.000   35.160865930  139.613843042    68.3740   1   6   0.0054   0.0030   0.0106   0.0016   0.0010   0.0042   0.01   62.8
2005/04/02 00:41:30.000   35.160865950  139.613843026    68.3759   1   6   0.0053   0.0030   0.0106   0.0018   0.0008   0.0044   0.01   65.0
2005/04/02 00:42:00.000   35.160865903  139.613843012    68.3860   1   6   0.0053   0.0030   0.0106   0.0018   0.0009   0.0045   0.01   66.9
2005/04/02 00:42:30.000   35.160865892  139.613843032    68.3797   1   6   0.0055   0.0030   0.0107   0.0018   0.0008   0.0045   0.01   68.1
2005/04/02 00:43:00.000   35.160865887  139.613843001    68.3776   1   6   0.0054   0.0030   0.0107   0.0018   0.0010   0.0045   0.01   68.9
2005/04/02 00:43:30.000   35.160865857  139.613842982    68.3753   1   6   0.0055   0.0028   0.0108   0.0020   0.0010   0.0047   0.01   71.4
2005/04/02 00:44:00.000   35.160865904  139.613843025    68.3781   1   6   0.0056   0.0030   0.0108   0.0017   0.0011   0.0047   0.01   73.6
2005/04/02 00:44:30.000   35.160865948  139.613842994    68.3891   1   6   0.0056   0.0029   0.0108   0.0018   0.0012   0.0048   0.01   76.5
2005/04/02 00:45:00.000   35.160865954  139.613843042    68.3815   1   6   0.0055   0.0028   0.0109   0.0021   0.0010   0.0049   0.01   80.0
2005/04/02 00:45:30.000   35.160865958  139.613843011    68.3706   1   6   0.0057   0.0030   0.0109   0.0017   0.0014   0.0049   0.01   82.3
2005/04/02 00:46:00.000   35.160865982  139.613843007    68.3736   1   6   0.0056   0.0032   0.0110   0.0017   0.0015   0.0050   0.01   83.7
2005/04/02 00:46:30.000   35.160865992  139.613843027    68.3683   1   6   0.0058   0.0033   0.0111   0.0013   0.0017   0.0049   0.01   84.5
2005/04/02 00:47:00.000   35.160865981  139.613842972    68.3665   1   6   0.0058   0.0029   0.0111   0.0017   0.0014   0.0051   0.01   85.2
2005/04/02 00:47:30.000   35.160865974  139.613842966    68.3786   1   6   0.0058   0.0031   0.0111   0.0017   0.0015   0.0052   0.01   89.2
2005/04/02 00:48:00.000   35.160865953  139.613842947    68.3814   1   6   0.0058   0.0030   0.0112   0.0017   0.0015   0.0052   0.01   92.5
2005/04/02 00:48:30.000   35.160865923  139.613842957    68.3694   1   6   0.0059   0.0029   0.0112   0.0017   0.0016   0.0053   0.01   96.3
2005/04/02 00:49:00.000   35.160865997  139.613843007    68.3825   1   6   0.0060   0.0030   0.0113   0.0016   0.0016   0.0053   0.01  101.5
2005/04/02 00:49:30.000   35.160865946  139.613842966    68.3752   1   6   0.0060   0.0032   0.0113   0.0016   0.0017   0.0054   0.01  103.4
2005/04/02 00:50:00.000   35.160865962  139.613842982    68.3754   1   6   0.0060   0.0031   0.0114   0.0017   0.0016   0.0055   0.01  106.6
2005/04/02 00:50:30.000   35.160865937  139.613842975    68.3724   1   6   0.0059   0.0029   0.0114   0.0021   0.0014   0.0057   0.01  107.7
2005/04/02 00:51:00.000   35.160865953  139.613842985    68.3810   1   6   0.0060   0.0032   0.0115   0.0017   0.0017   0.0056   0.01  110.4
2005/04/02 00:51:30.000   35.160865876  139.613843007    68.3750   1   6   0.0061   0.0029   0.0115   0.0018   0.0016   0.0057   0.01  111.6
2005/04/02 00:52:00.000   35.160865889  139.613843038    68.3739   1   6   0.0062   0.0030   0.0116   0.0017   0.0018   0.0057   0.01  109.6
2005/04/02 00:52:30.000   35.160865846  139.613843014    68.3634   1   6   0.0062   0.0030   0.0117   0.0019   0.0018   0.0058   0.01  108.6
2005/04/02 00:53:00.000   35.160865897  139.613843038    68.3700   1   6   0.0062   0.0031   0.0117   0.0019   0.0017   0.0059   0.01  108.5
2005/04/02 00:53:30.000   35.160865941  139.613843019    68.3764   1   7   0.0059   0.0031   0.0107   0.0014   0.0011   0.0051   0.01  110.5
2005/04/02 00:54:00.000   35.160865970  139.613843015    68.3893   1   8   0.0058   0.0028   0.0098   0.0016   0.0011   0.0048   0.01  112.9
2005/04/02 00:54:30.000   35.160865953  139.613843010    68.3832   1   8   0.0059   0.0028   0.0095   0.0008   0.0012   0.0047   0.01  111.4
2005/04/02 00:55:00.000   35.160865974  139.613843018    68.3768   1   8   0.0057   0.0030   0.0094   0.0012   0.0011   0.0047   0.01  115.2
2005/04/02 00:55:30.000   35.160866007  139.613843032    68.3896   1   8   0.0059   0.0028   0.0093   0.0010   0.0011   0.0046   0.01  120.7
2005/04/02 00:56:00.000   35.160865910  139.613843007    68.3856   1   8   0.0059   0.0027   0.0091   0.0014   0.0010   0.0044   0.01    9.1
2005/04/02 00:56:30.000   35.160865988  139.613842977    68.3871   1   8   0.0058   0.0028   0.0090   0.0013   0.0007   0.0045   0.01    7.6
2005/04/02 00:57:00.000   35.160865959  139.613842974    68.3881   1   8   0.0058   0.0029   0.0090   0.0011   0.0012   0.0044   0.01    8.7
2005/04/02 00:57:30.000   35.160866016  139.613843037    68.3857   1   8   0.0082   0.0041   0.0127   0.0019   0.0011   0.0064   0.01    9.8
2005/04/02 00:58:00.000   35.160866022  139.613842985    68.3719   1   8   0.0081   0.0036   0.0128   0.0020   0.0016   0.0064   0.01   11.0
2005/04/02 00:58:30.000   35.160865986  139.613842988    68.3774   1   8   0.0082   0.0032   0.0129   0.0024   0.0021   0.0062   0.01   12.5
2005/04/02 00:59:00.000   35.160866038  139.613842993    68.3849   1   8   0.0084   0.0036   0.0127   0.0018   0.0012   0.0063   0.01   14.1
2005/04/02 00:59:30.000   35.160866040  139.613843013    68.3817   1   8   0.0083   0.0038   0.0127   0.0013   0.0010   0.0065   0.01   14.7
