% program   : rnx2rtkp ver.EX 2.5.0
% inp file  : ../rinex/07590920.05o
% inp file  : ../rinex/30400920.05n
% inp file  : ../rinex/30400920.05o
% obs start : 2005/04/02 00:00:00.0 GPST (week1316 518400.0s)
% obs end   : 2005/04/02 00:59:30.0 GPST (week1316 521970.0s)
% ref pos   :  35.132057068  139.624306577    73.9077
%
% (e/n/u-baseline=WGS84,Q=1:fix,2:float,3:sbas,4:dgps,5:single,6:ppp,ns=# of satellites)
%  GPST                  e-baseline(m)  n-baseline(m)  u-baseline(m)   Q  ns   sde(m)   sdn(m)   sdu(m)  sden(m)  sdnu(m)  sdue(m) age(s)  ratio
2005/04/02 00:00:00.000      -953.6258      3196.1672        -5.6614   2   7   1.2232   1.5860   3.6710   0.5997  -1.4186  -1.2958   0.00    0.0
2005/04/02 00:00:30.000      -953.5203      3196.2866        -6.5237   2   7   0.7988   0.8213   1.3702   0.0651  -0.6092  -0.0069   0.00    0.0
2005/04/02 00:01:00.000      -953.4940      3196.3263        -6.5643   2   7   0.6321   0.5035   0.7800  -0.1890  -0.3728   0.3247   0.00    0.0
2005/04/02 00:01:30.000      -953.3367      3196.2348        -6.4067   1   7   0.0022   0.0029   0.0068   0.0011  -0.0027  -0.0023   0.00   40.8
2005/04/02 00:02:00.000      -953.3359      3196.2355        -6.4058   1   7   0.0020   0.0026   0.0061   0.0010  -0.0024  -0.0021   0.00   54.9
2005/04/02 00:02:30.000      -953.3356      3196.2357        -6.4058   1   7   0.0018   0.0024   0.0055   0.0009  -0.0022  -0.0019   0.00   64.4
2005/04/02 00:03:00.000      -953.3357      3196.2356        -6.4040   1   7   0.0017   0.0022   0.0051   0.0008  -0.0020  -0.0017   0.00   79.6
2005/04/02 00:03:30.000      -953.3360      3196.2352        -6.4019   1   7   0.0016   0.0020   0.0048   0.0008  -0.0019  -0.0016   0.00   75.2
2005/04/02 00:04:00.000      -953.3363      3196.2354        -6.4006   1   7   0.0015   0.0019   0.0045   0.0007  -0.0018  -0.0015   0.00   71.3
2005/04/02 00:04:30.000      -953.3358      3196.2356        -6.4012   1   7   0.0014   0.0018   0.0043   0.0007  -0.0017  -0.0014   0.00   60.9
2005/04/02 00:05:00.000      -953.3358      3196.2362        -6.4011   1   7   0.0013   0.0017   0.0041   0.0007  -0.0016  -0.0014   0.00   60.4
2005/04/02 00:05:30.000      -953.3361      3196.2367        -6.4006   1   7   0.0013   0.0017   0.0039   0.0006  -0.0015  -0.0013   0.00   61.0
2005/04/02 00:06:00.000      -953.3363      3196.2372        -6.4008   1   7   0.0012   0.0016   0.0038   0.0006  -0.0015  -0.0013   0.00   60.3
2005/04/02 00:06:30.000      -953.3364      3196.2375        -6.4009   1   7   0.0012   0.0016   0.0036   0.0006  -0.0014  -0.0012   0.00   62.6
2005/04/02 00:07:00.000      -953.3367      3196.2375        -6.4006   1   7   0.0011   0.0015   0.0035   0.0006  -0.0014  -0.0012   0.00   68.5
2005/04/02 00:07:30.000      -953.3370      3196.2375        -6.4002   1   7   0.0011   0.0015   0.0034   0.0005  -0.0013  -0.0011   0.00   74.2
2005/04/02 00:08:00.000      -953.3370      3196.2376        -6.4002   1   7   0.0011   0.0014   0.0033   0.0005  -0.0013  -0.0011   0.00   83.3
2005/04/02 00:08:30.000      -953.3373      3196.2375        -6.4003   1   7   0.0010   0.0014   0.0032   0.0005  -0.0012  -0.0011   0.00   92.3
2005/04/02 00:09:00.000      -953.3373      3196.2373        -6.4002   1   7   0.0010   0.0013   0.0031   0.0005  -0.0012  -0.0010   0.00  106.6
2005/04/02 00:09:30.000      -953.3370      3196.2374        -6.4015   1   7   0.0010   0.0013   0.0030   0.0005  -0.0012  -0.0010   0.00  109.9
2005/04/02 00:10:00.000      -953.3369      3196.2375        -6.4017   1   7   0.0010   0.0013   0.0030   0.0005  -0.0011  -0.0010   0.00  115.9
2005/04/02 00:10:30.000      -953.3369      3196.2374        -6.4019   1   7   0.0009   0.0013   0.0029   0.0005  -0.0011  -0.0010   0.00  128.9
2005/04/02 00:11:00.000      -953.3368      3196.2375        -6.4021   1   7   0.0009   0.0012   0.0028   0.0005  -0.0011  -0.0009   0.00  139.4
2005/04/02 00:11:30.000      -953.3330      3196.2417        -6.4111   1   7   0.0000   0.0000  19.2723  20.1469 -20.5146  18.6171   0.00  168.9
2005/04/02 00:12:00.000      -953.3349      3196.2391        -6.3984   1   7   0.5296   0.0000   0.6960   0.2122   0.2609   0.5165   0.00  186.6
2005/04/02 00:12:30.000      -953.3329      3196.2413        -6.4079   1   7   0.1468   0.0123   0.0000  -0.1142   0.0543  -0.0688   0.00  208.0
2005/04/02 00:13:00.000      -953.3350      3196.2418        -6.3990   1   7   0.0000   0.0335   0.0000   0.0882  -0.0602  -0.0355   0.00  223.3
2005/04/02 00:13:30.001      -953.3386      3196.2415        -6.4012   1   7   0.0000   0.0000   0.0501  -0.1017   0.0686  -0.0278   0.00  238.2
2005/04/02 00:14:00.001      -953.3390      3196.2393        -6.3899   1   7   0.0000   0.0000   0.0592  -0.0803  -0.0641   0.0653   0.00  251.9
2005/04/02 00:14:30.000      -953.3357      3196.2417        -6.4003   1   7   0.0000   0.0000   0.0497   0.0996  -0.0568   0.0558   0.00  258.4
2005/04/02 00:15:00.001      -953.3343      3196.2371        -6.3974   1   7   0.0000   0.1303   0.0116   0.1002   0.0484  -0.0345   0.00  258.3
2005/04/02 00:15:30.001      -953.3361      3196.2378        -6.3998   1   7   0.1324   0.1226   0.0000   0.1232  -0.0717   0.0181   0.00  257.0
2005/04/02 00:16:00.000      -953.3338      3196.2382        -6.4046   1   7   0.0910   0.0810   0.0000   0.1195  -0.0827  -0.0356   0.00  255.4
2005/04/02 00:16:30.001      -953.3349      3196.2374        -6.3987   1   7   0.1567   0.1653   0.0350   0.0568   0.0421  -0.0049   0.00  251.5
2005/04/02 00:17:00.000      -953.3353      3196.2382        -6.3968   1   7   0.1235   0.0000   0.0000   0.0871  -0.0481  -0.0477   0.00  261.0
2005/04/02 00:17:30.001      -953.3350      3196.2344        -6.3968   1   7   0.0000   0.1045   0.0000   0.0433  -0.0514  -0.0446   0.00  266.1
2005/04/02 00:18:00.001      -953.3330      3196.2381        -6.3970   1   6   0.1365   0.0361   0.0000   0.0621   0.0386  -0.0458   0.00  156.8
2005/04/02 00:18:30.000      -953.3334      3196.2373        -6.4069   1   6   0.0000   0.0000   0.0630   0.0644   0.0699   0.0143   0.00  158.3
2005/04/02 00:19:00.001      -953.3322      3196.2354        -6.3936   1   6   0.0000   0.0000   0.0384   0.0372   0.0549  -0.0252   0.00  161.5
2005/04/02 00:19:30.001      -953.3339      3196.2336        -6.4006   1   6   0.0000   0.0000   0.0562  -0.0764   0.0601   0.0169   0.00  166.0
2005/04/02 00:20:00.001      -953.3352      3196.2344        -6.3956   1   6   0.0000   0.0441   0.0480  -0.0925   0.0642  -0.0237   0.00  166.0
2005/04/02 00:20:30.000      -953.3356      3196.2357        -6.4035   1   6   0.1275   0.0000   0.0040   0.0682   0.0475  -0.0351   0.00  166.4
2005/04/02 00:20:59.999      -953.3330      3196.2391        -6.4034   1   6   0.0000   0.0000   0.0444  -0.0400   0.0428   0.0163   0.00  167.7
2005/04/02 00:21:30.002      -953.3369      3196.2401        -6.4026   1   6   0.0000   0.0000   0.0328  -0.0517   0.0495  -0.0270   0.00  171.9
2005/04/02 00:22:00.002      -953.3379      3196.2368        -6.3910   1   6   0.1007   0.0000   0.0000   0.0624  -0.0660   0.0188   0.00  182.5
2005/04/02 00:22:30.000      -953.3386      3196.2353        -6.4007   1   6   0.0000   0.0000   0.0843  -0.0450   0.0651   0.0514   0.00  188.8
2005/04/02 00:23:00.002      -953.3367      3196.2365        -6.3996   1   6   0.0000   0.0824   0.0000   0.0824  -0.0584  -0.0477   0.00  200.7
2005/04/02 00:23:30.002      -953.3374      3196.2358        -6.3960   1   6   0.0000   0.0729   0.0000  -0.0093   0.0056  -0.0163   0.00  207.6
2005/04/02 00:24:00.002      -953.3319      3196.2399        -6.4114   1   6   0.0000   0.0000   0.0269  -0.0474   0.0429  -0.0243   0.00  214.5
2005/04/02 00:24:30.002      -953.3327      3196.2389        -6.3990   1   6   0.0994   0.1031   0.0323   0.0457  -0.0467   0.0415   0.00  224.5
2005/04/02 00:25:00.000      -953.3357      3196.2363        -6.3959   1   6   0.0400   0.0000   0.0656  -0.0546   0.0575   0.0347   0.00  233.0
2005/04/02 00:25:30.002      -953.3351      3196.2356        -6.3956   1   6   0.0000   0.0440   0.0512  -0.0991  -0.0458   0.0520   0.00  239.8
2005/04/02 00:26:00.000      -953.3327      3196.2365        -6.4013   1   6   0.0000   0.0000   0.0582  -0.0630  -0.0294   0.0514   0.00  247.4
2005/04/02 00:26:30.002      -953.3297      3196.2353        -6.3990   1   6   0.1025   0.0000   0.0000  -0.0579  -0.0287  -0.0284   0.00  261.3
2005/04/02 00:27:00.000      -953.3329      3196.2362        -6.3959   1   6   0.1252   0.0429   0.0000  -0.0402  -0.0404  -0.0223   0.00  273.8
2005/04/02 00:27:30.000      -953.3336      3196.2347        -6.3890   1   6   0.0000   0.0490   0.0000  -0.0614  -0.0524   0.0181   0.00  283.7
2005/04/02 00:28:00.002      -953.3353      3196.2365        -6.3977   1   6   0.0000   0.0000   0.0279  -0.0410   0.0558  -0.0333   0.00  295.0
2005/04/02 00:28:30.002      -953.3371      3196.2350        -6.3978   1   6   0.0000   0.0000   0.0000   0.0095  -0.0297  -0.0235   0.00  308.4
2005/04/02 00:29:00.002      -953.3358      3196.2358        -6.4030   1   6   0.0000   0.0000   0.0000   0.0675   0.0388  -0.0321   0.00  324.3
2005/04/02 00:29:30.002      -953.3358      3196.2342        -6.3975   1   6   0.1106   0.1239   0.0000  -0.1169   0.0197  -0.0503   0.00  332.5
2005/04/02 00:30:00.000      -953.3328      3196.2382        -6.3978   1   6   0.0933   0.1601   0.0000  -0.0868  -0.0233  -0.0339   0.00  327.1
2005/04/02 00:30:30.000      -953.3341      3196.2344        -6.4054   1   6   0.0000   0.0737   0.0148   0.0248  -0.0473   0.0332   0.00  321.0
2005/04/02 00:31:00.000      -953.3323      3196.2333        -6.3964   1   6   0.0000   0.0000   0.0178   0.0870  -0.0270   0.0207   0.00  321.5
2005/04/02 00:31:30.002      -953.3352      3196.2342        -6.4044   1   6   0.0000   0.0720   0.0449   0.0918  -0.0492   0.0494   0.00  323.0
2005/04/02 00:32:00.002      -953.3300      3196.2406        -6.4159   1   6   0.0000   0.0000   0.0000   0.0937   0.0738  -0.0762   0.00  324.5
2005/04/02 00:32:30.002      -953.3342      3196.2377        -6.4017   1   6   0.0000   0.1153   0.0276   0.1318  -0.0519   0.0409   0.00  327.7
2005/04/02 00:33:00.003      -953.3346      3196.2331        -6.3966   1   6   0.0000   0.0000   0.0000   0.0776  -0.0092  -0.0373   0.00  340.8
2005/04/02 00:33:30.003      -953.3317      3196.2401        -6.3953   1   6   0.0000   0.0926   0.0000  -0.0809  -0.0314   0.0143   0.00  363.2
2005/04/02 00:34:00.000      -953.3372      3196.2412        -6.3902   1   6   0.0665   0.1255   0.0409  -0.0722  -0.0640   0.0548   0.00  394.4
2005/04/02 00:34:30.000      -953.3350      3196.2417        -6.4017   1   6   0.1411   0.0000   0.0774  -0.0803   0.0662   0.0441   0.00  431.2
2005/04/02 00:35:00.000      -953.3338      3196.2411        -6.3956   1   6   0.1158   0.0000   0.0166  -0.0744   0.0413  -0.0271   0.00  460.6
2005/04/02 00:35:30.000      -953.3350      3196.2376        -6.4134   1   6   0.0599   0.1316   0.0213  -0.0653  -0.0556   0.0415   0.00  475.6
2005/04/02 00:36:00.000      -953.3308      3196.2420        -6.3945   1   6   0.0488   0.0857   0.0000   0.0107  -0.0317  -0.0507   0.00  492.7
2005/04/02 00:36:30.003      -953.3324      3196.2383        -6.4093   1   6   0.0000   0.0000   0.0534   0.0863  -0.0525   0.0564   0.01  506.0
2005/04/02 00:37:00.003      -953.3353      3196.2383        -6.3987   1   6   0.0568   0.0000   0.0174   0.0513   0.0638  -0.0433   0.01  521.2
2005/04/02 00:37:30.003      -953.3355      3196.2349        -6.4047   1   6   0.0800   0.0385   0.0000  -0.0678   0.0455  -0.0523   0.01  530.9
2005/04/02 00:38:00.000      -953.3339      3196.2347        -6.4047   1   6   0.0000   0.0000   0.0322   0.0643   0.0434  -0.0178   0.01  541.8
2005/04/02 00:38:30.003      -953.3326      3196.2340        -6.4027   1   6   0.0000   0.0854   0.0461   0.0515  -0.0827   0.0683   0.01  551.9
2005/04/02 00:39:00.000      -953.3371      3196.2326        -6.4038   1   6   0.0000   0.0918   0.0000  -0.0735  -0.0635   0.0296   0.01  556.1
2005/04/02 00:39:30.000      -953.3369      3196.2313        -6.4046   1   6   0.0000   0.0000   0.0817   0.0904  -0.0288   0.0700   0.01  573.1
2005/04/02 00:40:00.003      -953.3368      3196.2383        -6.4043   1   6   0.1166   0.0000   0.0297   0.0315   0.0548  -0.0315   0.01  570.1
2005/04/02 00:40:30.000      -953.3328      3196.2393        -6.3981   1   6   0.0323   0.0000   0.0000  -0.0649   0.0291  -0.0380   0.01  575.3
2005/04/02 00:41:00.003      -953.3340      3196.2334        -6.4096   1   6   0.0947   0.0917   0.0830  -0.0980  -0.0733   0.0853   0.01  570.5
2005/04/02 00:41:30.000      -953.3354      3196.2356        -6.4072   1   6   0.0350   0.0000   0.0000  -0.0402   0.0724  -0.0539   0.01  567.3
2005/04/02 00:42:00.003      -953.3367      3196.2303        -6.3978   1   6   0.0549   0.1105   0.0502   0.0554  -0.0805   0.0689   0.01  569.4
2005/04/02 00:42:30.000      -953.3349      3196.2292        -6.4032   1   6   0.0713   0.0000   0.0678  -0.0574  -0.0744   0.0759   0.01  569.7
2005/04/02 00:43:00.000      -953.3377      3196.2285        -6.4059   1   6   0.0000   0.0525   0.0630   0.0354  -0.0058   0.0510   0.01  572.2
2005/04/02 00:43:30.003      -953.3395      3196.2253        -6.4077   1   6   0.0000   0.1248   0.0000  -0.0508  -0.0437  -0.0567   0.01  567.7
2005/04/02 00:44:00.000      -953.3355      3196.2304        -6.4057   1   6   0.0000   0.0000   0.0000   0.1334   0.0233  -0.0323   0.01  563.0
2005/04/02 00:44:30.003      -953.3383      3196.2354        -6.3944   1   6   0.0000   0.0292   0.0564   0.0502   0.0632   0.0109   0.01  560.5
2005/04/02 00:45:00.004      -953.3340      3196.2361        -6.4020   1   6   0.0737   0.0726   0.0476   0.0099   0.0633  -0.0226   0.01  564.9
2005/04/02 00:45:30.000      -953.3368      3196.2364        -6.4125   1   6   0.0000   0.0924   0.0411  -0.0557  -0.0463   0.0454   0.01  551.7
2005/04/02 00:46:00.000      -953.3371      3196.2391        -6.4102   1   6   0.0000   0.0000   0.0000   0.0619   0.0549  -0.0573   0.01  540.3
2005/04/02 00:46:30.004      -953.3354      3196.2402        -6.4147   1   6   0.1205   0.0000   0.0000  -0.1469   0.0565  -0.0564   0.01  536.4
2005/04/02 00:47:00.000      -953.3404      3196.2390        -6.4165   1   6   0.1137   0.0875   0.0000  -0.0916   0.0611  -0.0528   0.01  528.4
2005/04/02 00:47:30.000      -953.3409      3196.2382        -6.4049   1   6   0.0920   0.0296   0.0272   0.0279  -0.0529   0.0416   0.01  525.8
2005/04/02 00:48:00.000      -953.3427      3196.2359        -6.4016   1   6   0.1287   0.0000   0.0447  -0.0721   0.0786  -0.0413   0.01  528.8
2005/04/02 00:48:30.000      -953.3417      3196.2325        -6.4142   1   6   0.0857   0.1486   0.0000  -0.0792  -0.0606   0.0069   0.01  520.6
2005/04/02 00:49:00.000      -953.3371      3196.2407        -6.4009   1   6   0.0000   0.0000   0.0000   0.0908  -0.0627   0.0248   0.01  511.9
2005/04/02 00:49:30.004      -953.3409      3196.2351        -6.4082   1   6   0.1363   0.1194   0.0000  -0.0762   0.0472  -0.0426   0.01  509.7
2005/04/02 00:50:00.000      -953.3394      3196.2368        -6.4081   1   6   0.1195   0.1190   0.0000  -0.1536   0.0510  -0.0525   0.01  510.4
2005/04/02 00:50:30.000      -953.3401      3196.2341        -6.4108   1   6   0.0807   0.1311   0.0000  -0.0833  -0.0667   0.0329   0.01  515.3
2005/04/02 00:51:00.000      -953.3391      3196.2358        -6.4024   1   6   0.0825   0.0671   0.0000  -0.0378   0.0442  -0.0339   0.01  523.0
2005/04/02 00:51:30.000      -953.3372      3196.2274        -6.4078   1   6   0.0371   0.0000   0.0368   0.0556   0.0711  -0.0405   0.01  532.2
2005/04/02 00:52:00.004      -953.3344      3196.2287        -6.4093   1   6   0.1172   0.0000   0.0558  -0.0520   0.0791  -0.0315   0.01  535.7
2005/04/02 00:52:30.000      -953.3366      3196.2241        -6.4193   1   6   0.1483   0.0000   0.0000  -0.0851  -0.0296  -0.0149   0.01  532.2
2005/04/02 00:53:00.000      -953.3344      3196.2297        -6.4129   1   6   0.0796   0.0000   0.0576   0.0399   0.0844  -0.0358   0.01  535.6
2005/04/02 00:53:30.004      -953.3364      3196.2336        -6.4089   1   6   0.1522   0.1170   0.0000  -0.0961  -0.0151  -0.0404   0.01  542.1
2005/04/02 00:54:00.000      -953.3362      3196.2367        -6.3994   1   6   0.1581   0.1000   0.0000  -0.1338   0.0123  -0.0339   0.01  549.5
2005/04/02 00:54:30.000      -953.3364      3196.2369        -6.3990   1   6   0.1485   0.1307   0.0614  -0.1210  -0.0706   0.0702   0.01  549.4
2005/04/02 00:55:00.000      -953.3356      3196.2391        -6.4056   1   6   0.0000   0.1147   0.0340  -0.1033  -0.0491   0.0429   0.01  550.1
2005/04/02 00:55:30.000      -953.3343      3196.2435        -6.3898   1   6   0.0000   0.0000   0.0772   0.0680   0.0455   0.0545   0.01  554.2
2005/04/02 00:56:00.004      -953.3365      3196.2344        -6.3882   1   6   0.0914   0.0000   0.0000   0.0757   0.0633  -0.0530   0.01  558.2
2005/04/02 00:56:30.004      -953.3393      3196.2381        -6.4052   1   6   0.0000   0.0000   0.0601   0.1305  -0.0148   0.0493   0.01  559.4
2005/04/02 00:57:00.005      -953.3437      3196.2630        -6.3317   1   5   0.0977   0.0916   0.1105  -0.0544   0.0784  -0.0292   0.01  999.9
2005/04/02 00:57:30.000      -953.3391      3196.2754        -6.3185   1   5   0.0900   0.1059   0.1144  -0.0818   0.0695  -0.0287   0.01  999.9
2005/04/02 00:58:00.000      -953.3404      3196.2660        -6.3576   1   5   0.0000   0.0940   0.1381  -0.0678   0.0725   0.0394   0.01  999.9
2005/04/02 00:58:30.000      -953.3447      3196.2795        -6.3043   1   5   0.1050   0.1314   0.1285  -0.0448   0.0801  -0.0534   0.01  999.9
2005/04/02 00:59:00.000      -953.3417      3196.2684        -6.3423   1   5   0.0565   0.0493   0.1625  -0.0323   0.0735   0.0437   0.01  999.9
2005/04/02 00:59:30.000      -953.3369      3196.2566        -6.3805   1   5   0.0000   0.0000   0.1775   0.0708   0.1023  -0.0179   0.01  999.9
