% program   : rnx2rtkp ver.EX 2.5.0
% inp file  : ../rinex/07590920.05o
% inp file  : ../rinex/30400920.05n
% inp file  : ../rinex/30400920.05o
% obs start : 2005/04/02 00:00:00.0 GPST (week1316 518400.0s)
% obs end   : 2005/04/02 00:59:30.0 GPST (week1316 521970.0s)
% ref pos   :  -3978241.9580   3382840.2340   3649900.8530
%
% (x/y/z-ecef=WGS84,Q=1:fix,2:float,3:sbas,4:dgps,5:single,6:ppp,ns=# of satellites)
%  GPST                      x-ecef(m)      y-ecef(m)      z-ecef(m)   Q  ns   sdx(m)   sdy(m)   sdz(m)  sdxy(m)  sdyz(m)  sdzx(m) age(s)  ratio
2005/04/02 00:00:00.000  -3976219.4905   3382372.2425   3652511.5097   2   7   2.4253   2.7120   2.0618  -2.3042   1.8475  -1.7252   0.00    0.0
2005/04/02 00:00:30.000  -3976218.9496   3382371.5896   3652511.3950   2   7   2.4391   2.7252   2.0744  -2.3194   1.8612  -1.7402   0.00    0.0
2005/04/02 00:01:00.000  -3976219.3721   3382371.8930   3652511.5286   2   7   2.4202   2.7273   2.0630  -2.3108   1.8982  -1.7697   0.00    0.0
2005/04/02 00:01:30.000  -3976219.6165   3382371.9673   3652511.4208   2   7   2.4286   2.7071   2.0755  -2.3044   1.8491  -1.7332   0.00    0.0
2005/04/02 00:02:00.000  -3976218.9075   3382371.4051   3652510.6822   2   7   2.4257   2.7005   2.0777  -2.2996   1.8456  -1.7323   0.00    0.0
2005/04/02 00:02:30.000  -3976219.4315   3382372.2921   3652511.8251   2   7   2.4227   2.6939   2.0800  -2.2947   1.8419  -1.7312   0.00    0.0
2005/04/02 00:03:00.000  -3976219.4780   3382371.9866   3652511.3862   2   7   2.4196   2.6871   2.0823  -2.2896   1.8382  -1.7300   0.00    0.0
2005/04/02 00:03:30.000  -3976219.4749   3382372.1016   3652511.0754   2   7   2.4164   2.6802   2.0846  -2.2844   1.8344  -1.7288   0.00    0.0
2005/04/02 00:04:00.000  -3976219.5195   3382372.1110   3652511.5104   2   7   2.4131   2.6731   2.0869  -2.2791   1.8304  -1.7275   0.00    0.0
2005/04/02 00:04:30.000  -3976219.2762   3382371.5093   3652511.4185   2   7   2.4098   2.6659   2.0892  -2.2736   1.8263  -1.7261   0.00    0.0
2005/04/02 00:05:00.000  -3976219.0910   3382371.4267   3652511.5875   2   7   2.4063   2.6586   2.0916  -2.2681   1.8221  -1.7246   0.00    0.0
2005/04/02 00:05:30.000  -3976219.2837   3382371.7963   3652511.4991   2   7   2.4028   2.6512   2.0940  -2.2624   1.8178  -1.7230   0.00    0.0
2005/04/02 00:06:00.000  -3976219.1922   3382372.1139   3652511.6221   2   7   2.3992   2.6437   2.0965  -2.2566   1.8135  -1.7214   0.00    0.0
2005/04/02 00:06:30.000  -3976219.5885   3382372.0185   3652511.3890   2   7   2.3956   2.6361   2.0990  -2.2507   1.8090  -1.7198   0.00    0.0
2005/04/02 00:07:00.000  -3976219.5683   3382371.8939   3652511.2774   2   7   2.3919   2.6284   2.1015  -2.2447   1.8045  -1.7181   0.00    0.0
2005/04/02 00:07:30.000  -3976219.4542   3382371.6617   3652511.0434   2   7   2.3882   2.6207   2.1041  -2.2386   1.7998  -1.7163   0.00    0.0
2005/04/02 00:08:00.000  -3976218.6602   3382370.9405   3652511.1543   2   7   2.3844   2.6128   2.1067  -2.2324   1.7951  -1.7145   0.00    0.0
2005/04/02 00:08:30.000  -3976219.2792   3382371.4970   3652511.4005   2   7   2.3806   2.6049   2.1095  -2.2262   1.7904  -1.7127   0.00    0.0
2005/04/02 00:09:00.000  -3976219.6197   3382371.8170   3652511.5645   2   7   2.3768   2.5969   2.1122  -2.2199   1.7856  -1.7108   0.00    0.0
2005/04/02 00:09:30.000  -3976219.6878   3382372.0359   3652511.4677   2   7   2.3729   2.5889   2.1151  -2.2135   1.7807  -1.7089   0.00    0.0
2005/04/02 00:10:00.000  -3976219.5858   3382372.1816   3652511.8089   2   7   2.3690   2.5808   2.1180  -2.2071   1.7758  -1.7070   0.00    0.0
2005/04/02 00:10:30.000  -3976219.1889   3382371.5228   3652511.2639   2   7   2.3651   2.5727   2.1209  -2.2007   1.7708  -1.7051   0.00    0.0
2005/04/02 00:11:00.000  -3976218.9176   3382371.3888   3652511.1490   2   7   2.3612   2.5646   2.1240  -2.1942   1.7658  -1.7031   0.00    0.0
2005/04/02 00:11:30.000  -3976218.5915   3382371.2956   3652511.1342   2   7   2.3572   2.5564   2.1271  -2.1876   1.7607  -1.7012   0.00    0.0
2005/04/02 00:12:00.000  -3976219.4738   3382372.0031   3652511.2492   2   7   2.3533   2.5482   2.1304  -2.1810   1.7557  -1.6993   0.00    0.0
2005/04/02 00:12:30.000  -3976219.4236   3382371.5163   3652511.2236   2   7   2.3494   2.5399   2.1337  -2.1744   1.7506  -1.6973   0.00    0.0
2005/04/02 00:13:00.000  -3976219.0389   3382371.7812   3652511.5050   2   7   2.3454   2.5317   2.1371  -2.1678   1.7454  -1.6954   0.00    0.0
2005/04/02 00:13:30.000  -3976218.6948   3382371.3211   3652511.0242   2   7   2.3415   2.5235   2.1405  -2.1612   1.7403  -1.6935   0.00    0.0
2005/04/02 00:14:00.000  -3976218.9461   3382371.4128   3652510.6408   2   7   2.3376   2.5152   2.1441  -2.1545   1.7352  -1.6916   0.00    0.0
2005/04/02 00:14:30.000  -3976219.0114   3382371.7933   3652510.9774   2   7   2.3337   2.5070   2.1478  -2.1479   1.7300  -1.6897   0.00    0.0
2005/04/02 00:15:00.000  -3976219.5544   3382372.1527   3652511.4715   2   7   2.3299   2.4988   2.1516  -2.1413   1.7249  -1.6879   0.00    0.0
2005/04/02 00:15:30.000  -3976219.5801   3382372.1345   3652511.9284   2   7   2.3260   2.4905   2.1555  -2.1346   1.7197  -1.6860   0.00    0.0
2005/04/02 00:16:00.000  -3976219.3415   3382372.0163   3652511.4134   2   7   2.3222   2.4823   2.1595  -2.1280   1.7146  -1.6843   0.00    0.0
2005/04/02 00:16:30.000  -3976219.2127   3382371.3040   3652511.5364   2   7   2.3185   2.4742   2.1636  -2.1214   1.7095  -1.6825   0.00    0.0
2005/04/02 00:17:00.000  -3976219.2343   3382371.5362   3652511.4629   2   7   2.3147   2.4660   2.1678  -2.1148   1.7043  -1.6808   0.00    0.0
2005/04/02 00:17:30.000  -3976218.9221   3382371.4780   3652510.9634   2   7   2.3111   2.4579   2.1721  -2.1082   1.6993  -1.6791   0.00    0.0
2005/04/02 00:18:00.000  -3976219.5479   3382371.8173   3652511.7598   2   6   2.5219   2.5021   2.6047  -2.2209   1.8947  -2.0660   0.00    0.0
2005/04/02 00:18:30.000  -3976218.7944   3382370.7958   3652510.8901   2   6   2.5199   2.4948   2.6156  -2.2157   1.8930  -2.0690   0.00    0.0
2005/04/02 00:19:00.000  -3976218.7976   3382371.7384   3652511.3192   2   6   2.5179   2.4876   2.6266  -2.2106   1.8914  -2.0721   0.00    0.0
2005/04/02 00:19:30.000  -3976218.4457   3382371.2684   3652511.2210   2   6   2.5159   2.4803   2.6378  -2.2055   1.8897  -2.0751   0.00    0.0
2005/04/02 00:20:00.000  -3976219.2426   3382371.7408   3652511.4833   2   6   2.5140   2.4731   2.6491  -2.2004   1.8881  -2.0782   0.00    0.0
2005/04/02 00:20:30.000  -3976219.2243   3382371.7618   3652511.4360   2   6   2.5121   2.4659   2.6606  -2.1953   1.8864  -2.0814   0.00    0.0
2005/04/02 00:20:59.999  -3976218.8833   3382371.6431   3652511.2608   2   6   2.5102   2.4588   2.6722  -2.1902   1.8848  -2.0847   0.00    0.0
2005/04/02 00:21:30.000  -3976219.2390   3382371.9667   3652511.0405   2   6   2.5084   2.4516   2.6841  -2.1851   1.8833  -2.0880   0.00    0.0
2005/04/02 00:22:00.000  -3976219.0781   3382371.2499   3652511.2824   2   6   2.5066   2.4446   2.6961  -2.1801   1.8818  -2.0914   0.00    0.0
2005/04/02 00:22:30.000  -3976218.6778   3382371.4607   3652510.8959   2   6   2.5049   2.4376   2.7082  -2.1751   1.8803  -2.0948   0.00    0.0
2005/04/02 00:23:00.000  -3976218.7754   3382371.1648   3652511.4260   2   6   2.5033   2.4306   2.7206  -2.1702   1.8789  -2.0984   0.00    0.0
2005/04/02 00:23:30.000  -3976219.1612   3382371.6250   3652511.6829   2   6   2.5017   2.4237   2.7331  -2.1653   1.8775  -2.1021   0.00    0.0
2005/04/02 00:24:00.000  -3976219.6322   3382372.3581   3652511.3821   2   6   2.5002   2.4169   2.7458  -2.1605   1.8762  -2.1058   0.00    0.0
2005/04/02 00:24:30.000  -3976219.1785   3382371.6492   3652511.2170   2   6   2.4988   2.4101   2.7587  -2.1557   1.8750  -2.1096   0.00    0.0
2005/04/02 00:25:00.000  -3976219.7764   3382372.1927   3652511.6886   2   6   2.4974   2.4034   2.7718  -2.1510   1.8738  -2.1135   0.00    0.0
2005/04/02 00:25:30.000  -3976219.5617   3382372.1151   3652511.8386   2   6   2.4961   2.3967   2.7850  -2.1463   1.8726  -2.1176   0.00    0.0
2005/04/02 00:26:00.000  -3976219.2795   3382371.8689   3652511.2940   2   6   2.4949   2.3902   2.7985  -2.1417   1.8716  -2.1217   0.00    0.0
2005/04/02 00:26:30.000  -3976219.2481   3382371.6344   3652511.2090   2   6   2.4938   2.3836   2.8121  -2.1371   1.8706  -2.1259   0.00    0.0
2005/04/02 00:27:00.000  -3976218.9166   3382371.3809   3652511.2493   2   6   2.4927   2.3772   2.8259  -2.1327   1.8697  -2.1302   0.00    0.0
2005/04/02 00:27:30.000  -3976218.9129   3382371.7412   3652511.0113   2   6   2.4918   2.3709   2.8400  -2.1283   1.8689  -2.1347   0.00    0.0
2005/04/02 00:28:00.000  -3976219.3767   3382371.6434   3652511.3578   2   6   2.4909   2.3646   2.8542  -2.1239   1.8681  -2.1392   0.00    0.0
2005/04/02 00:28:30.000  -3976219.2181   3382371.8248   3652511.3078   2   6   2.4902   2.3584   2.8685  -2.1197   1.8675  -2.1439   0.00    0.0
2005/04/02 00:29:00.000  -3976219.3407   3382371.6604   3652511.0842   2   6   2.4895   2.3523   2.8831  -2.1155   1.8669  -2.1486   0.00    0.0
2005/04/02 00:29:30.000  -3976218.9277   3382371.7520   3652511.0632   2   6   2.4889   2.3462   2.8979  -2.1114   1.8664  -2.1535   0.00    0.0
2005/04/02 00:30:00.000  -3976219.1094   3382371.9567   3652510.8921   2   6   2.4885   2.3403   2.9128  -2.1075   1.8660  -2.1585   0.00    0.0
2005/04/02 00:30:30.000  -3976219.1242   3382371.3220   3652511.0996   2   6   2.4881   2.3344   2.9279  -2.1035   1.8657  -2.1636   0.00    0.0
2005/04/02 00:31:00.000  -3976218.9132   3382371.4312   3652511.3505   2   6   2.4878   2.3287   2.9432  -2.0997   1.8655  -2.1688   0.00    0.0
2005/04/02 00:31:30.000  -3976218.9276   3382371.4363   3652511.2850   2   6   2.4877   2.3230   2.9587  -2.0960   1.8654  -2.1741   0.00    0.0
2005/04/02 00:32:00.000  -3976219.4526   3382371.9240   3652511.8932   2   6   2.4876   2.3174   2.9744  -2.0924   1.8654  -2.1796   0.00    0.0
2005/04/02 00:32:30.000  -3976218.9261   3382371.4647   3652511.3792   2   6   2.4877   2.3119   2.9903  -2.0888   1.8655  -2.1852   0.00    0.0
2005/04/02 00:33:00.000  -3976219.1825   3382371.6273   3652511.6922   2   6   2.4878   2.3065   3.0063  -2.0854   1.8657  -2.1909   0.00    0.0
2005/04/02 00:33:30.000  -3976219.0416   3382371.7123   3652511.3951   2   6   2.4881   2.3012   3.0225  -2.0821   1.8660  -2.1967   0.00    0.0
2005/04/02 00:34:00.000  -3976219.7266   3382372.4727   3652511.5250   2   6   2.4885   2.2960   3.0388  -2.0788   1.8664  -2.2026   0.00    0.0
2005/04/02 00:34:30.000  -3976219.2363   3382371.8320   3652511.4942   2   6   2.4890   2.2909   3.0553  -2.0757   1.8670  -2.2087   0.00    0.0
2005/04/02 00:35:00.000  -3976219.2690   3382372.0479   3652511.5147   2   6   2.4896   2.2860   3.0720  -2.0727   1.8676  -2.2148   0.00    0.0
2005/04/02 00:35:30.000  -3976219.6494   3382371.9522   3652511.8630   2   6   2.4904   2.2811   3.0888  -2.0698   1.8684  -2.2211   0.00    0.0
2005/04/02 00:36:00.000  -3976219.4420   3382371.7901   3652511.5931   2   6   2.4912   2.2763   3.1058  -2.0670   1.8693  -2.2275   0.00    0.0
2005/04/02 00:36:30.000  -3976219.1241   3382371.4685   3652511.8868   2   6   2.4922   2.2716   3.1229  -2.0643   1.8703  -2.2340   0.01    0.0
2005/04/02 00:37:00.000  -3976219.0568   3382371.5096   3652511.5968   2   6   2.4933   2.2670   3.1401  -2.0618   1.8714  -2.2406   0.01    0.0
2005/04/02 00:37:30.000  -3976219.7334   3382371.8420   3652511.8714   2   6   2.4946   2.2626   3.1575  -2.0593   1.8727  -2.2473   0.01    0.0
2005/04/02 00:38:00.000  -3976219.3758   3382372.0086   3652510.8917   2   6   2.4959   2.2582   3.1750  -2.0570   1.8740  -2.2541   0.01    0.0
2005/04/02 00:38:30.000  -3976219.2129   3382371.2058   3652510.8760   2   6   2.4974   2.2539   3.1926  -2.0548   1.8755  -2.2610   0.01    0.0
2005/04/02 00:39:00.000  -3976219.1869   3382371.7454   3652511.1986   2   6   2.4990   2.2498   3.2103  -2.0527   1.8771  -2.2681   0.01    0.0
2005/04/02 00:39:30.000  -3976219.3993   3382371.8439   3652512.2774   2   6   2.5007   2.2458   3.2280  -2.0507   1.8788  -2.2752   0.01    0.0
2005/04/02 00:40:00.000  -3976219.2477   3382371.9855   3652511.9030   2   6   2.5025   2.2418   3.2459  -2.0489   1.8807  -2.2824   0.01    0.0
2005/04/02 00:40:30.000  -3976219.4016   3382371.9804   3652511.4610   2   6   2.5045   2.2380   3.2638  -2.0471   1.8826  -2.2897   0.01    0.0
2005/04/02 00:41:00.000  -3976219.5752   3382371.7471   3652511.2572   2   6   2.5066   2.2343   3.2818  -2.0455   1.8847  -2.2971   0.01    0.0
2005/04/02 00:41:30.000  -3976218.5460   3382371.2060   3652510.6535   2   6   2.5088   2.2308   3.2999  -2.0441   1.8869  -2.3045   0.01    0.0
2005/04/02 00:42:00.000  -3976219.3119   3382371.6712   3652511.5381   2   6   2.5111   2.2273   3.3179  -2.0427   1.8892  -2.3121   0.01    0.0
2005/04/02 00:42:30.000  -3976219.4892   3382372.1417   3652511.2988   2   6   2.5136   2.2239   3.3360  -2.0415   1.8917  -2.3197   0.01    0.0
2005/04/02 00:43:00.000  -3976219.1126   3382371.8146   3652511.2888   2   6   2.5162   2.2207   3.3541  -2.0404   1.8942  -2.3273   0.01    0.0
2005/04/02 00:43:30.000  -3976219.2140   3382371.4487   3652510.9651   2   6   2.5189   2.2175   3.3722  -2.0394   1.8969  -2.3350   0.01    0.0
2005/04/02 00:44:00.000  -3976219.8175   3382372.0317   3652511.3150   2   6   2.5217   2.2145   3.3902  -2.0386   1.8997  -2.3428   0.01    0.0
2005/04/02 00:44:30.000  -3976219.7934   3382371.9971   3652511.2908   2   6   2.5246   2.2116   3.4082  -2.0378   1.9026  -2.3506   0.01    0.0
2005/04/02 00:45:00.000  -3976219.4789   3382371.7183   3652511.4728   2   6   2.5277   2.2088   3.4262  -2.0373   1.9056  -2.3584   0.01    0.0
2005/04/02 00:45:30.000  -3976219.2578   3382371.5067   3652511.5074   2   6   2.5309   2.2062   3.4441  -2.0368   1.9087  -2.3663   0.01    0.0
2005/04/02 00:46:00.000  -3976219.6315   3382371.6546   3652512.0770   2   6   2.5341   2.2036   3.4619  -2.0365   1.9119  -2.3742   0.01    0.0
2005/04/02 00:46:30.000  -3976219.0202   3382371.5738   3652511.2532   2   6   2.5375   2.2012   3.4795  -2.0363   1.9152  -2.3821   0.01    0.0
2005/04/02 00:47:00.000  -3976218.9630   3382371.2409   3652511.0377   2   6   2.5411   2.1988   3.4971  -2.0362   1.9186  -2.3900   0.01    0.0
2005/04/02 00:47:30.000  -3976219.1474   3382371.4799   3652511.0741   2   6   2.5447   2.1966   3.5144  -2.0362   1.9221  -2.3979   0.01    0.0
2005/04/02 00:48:00.000  -3976219.2729   3382371.5619   3652511.7042   2   6   2.5484   2.1945   3.5316  -2.0364   1.9256  -2.4057   0.01    0.0
2005/04/02 00:48:30.000  -3976218.9177   3382371.3949   3652511.1074   2   6   2.5523   2.1926   3.5486  -2.0367   1.9293  -2.4136   0.01    0.0
2005/04/02 00:49:00.000  -3976219.2431   3382371.7880   3652511.3168   2   6   2.5562   2.1907   3.5654  -2.0371   1.9330  -2.4214   0.01    0.0
2005/04/02 00:49:30.000  -3976219.5944   3382371.8135   3652512.0153   2   6   2.5603   2.1889   3.5820  -2.0377   1.9368  -2.4291   0.01    0.0
2005/04/02 00:50:00.000  -3976219.3523   3382372.0034   3652511.1221   2   6   2.5644   2.1873   3.5983  -2.0384   1.9407  -2.4368   0.01    0.0
2005/04/02 00:50:30.000  -3976219.2854   3382371.7898   3652511.2027   2   6   2.5687   2.1858   3.6143  -2.0392   1.9446  -2.4444   0.01    0.0
2005/04/02 00:51:00.000  -3976219.1251   3382371.8585   3652511.0115   2   6   2.5730   2.1844   3.6299  -2.0401   1.9486  -2.4520   0.01    0.0
2005/04/02 00:51:30.000  -3976219.5425   3382371.4370   3652511.6157   2   6   2.5775   2.1831   3.6453  -2.0411   1.9526  -2.4594   0.01    0.0
2005/04/02 00:52:00.000  -3976219.0763   3382371.6564   3652510.9163   2   6   2.5820   2.1819   3.6603  -2.0423   1.9566  -2.4668   0.01    0.0
2005/04/02 00:52:30.000  -3976219.7012   3382371.5426   3652512.1028   2   6   2.5867   2.1808   3.6749  -2.0436   1.9607  -2.4740   0.01    0.0
2005/04/02 00:53:00.000  -3976219.0319   3382371.6989   3652511.1220   2   6   2.5914   2.1798   3.6891  -2.0450   1.9648  -2.4811   0.01    0.0
2005/04/02 00:53:30.000  -3976219.4891   3382371.7664   3652511.1840   2   6   2.5962   2.1790   3.7029  -2.0465   1.9690  -2.4881   0.01    0.0
2005/04/02 00:54:00.000  -3976218.7594   3382371.3846   3652511.0467   2   6   2.6011   2.1782   3.7163  -2.0481   1.9731  -2.4949   0.01    0.0
2005/04/02 00:54:30.000  -3976218.6453   3382371.5850   3652510.6050   2   6   2.6061   2.1776   3.7291  -2.0498   1.9773  -2.5016   0.01    0.0
2005/04/02 00:55:00.000  -3976219.3927   3382371.8186   3652511.7668   2   6   2.6111   2.1771   3.7415  -2.0517   1.9814  -2.5081   0.01    0.0
2005/04/02 00:55:30.000  -3976219.6692   3382372.0811   3652511.8220   2   6   2.6162   2.1766   3.7533  -2.0537   1.9856  -2.5144   0.01    0.0
2005/04/02 00:56:00.000  -3976219.0023   3382371.6124   3652511.3067   2   6   2.6215   2.1763   3.7646  -2.0557   1.9897  -2.5206   0.01    0.0
2005/04/02 00:56:30.000  -3976219.4403   3382371.9048   3652510.9751   2   6   2.6267   2.1761   3.7753  -2.0579   1.9938  -2.5265   0.01    0.0
2005/04/02 00:57:00.000  -3976219.7056   3382372.5230   3652513.0342   2   5  10.7645  11.4693  23.0164 -11.0356  16.1136 -15.6006   0.01    0.0
2005/04/02 00:57:30.000  -3976218.9901   3382371.2351   3652510.7899   2   5  12.7187  13.5046  27.3228 -13.0416  19.0955 -18.5228   0.01    0.0
2005/04/02 00:58:00.000  -3976222.1159   3382374.8349   3652516.5455   2   5  13.9045  14.7119  29.9813 -14.2438  20.8980 -20.3084   0.01    0.0
2005/04/02 00:58:30.000  -3976223.8516   3382376.1980   3652521.1325   2   5  15.3602  16.1950  33.2301 -15.7189  23.1041 -22.4932   0.01    0.0
2005/04/02 00:59:00.000  -3976222.4024   3382375.1907   3652518.2631   2   5  16.9742  17.8336  36.8278 -17.3504  25.5422 -24.9121   0.01    0.0
2005/04/02 00:59:30.000  -3976217.6617   3382370.0241   3652507.3464   2   5  18.7683  19.6489  40.8202 -19.1599  28.2434 -27.5969   0.01    0.0
